$GPRMC,183408,V,4124.7502,N,08152.2393,W,,,010305,007.9,W*68
$GPGGA,183408,4124.7502,N,08152.2393,W,0,00,,,M,,M,,*4F
$GPGSA,A,1,,,,,,,,,,,,,,,*1E
$GPGSV,3,1,12,02,71,317,00,04,50,056,00,05,43,263,00,06,02,307,00*7E
$PGRME,,M,,M,,M*00
$PGRMM,WGS 84*06
$GPRMC,183409,V,4124.7502,N,08152.2393,W,,,010305,007.9,W*69
$GPGGA,183409,4124.7502,N,08152.2393,W,0,00,,,M,,M,,*4E
$GPGSA,A,1,,,,,,,,,,,,,,,*1E
$GPGSV,3,2,12,07,20,126,00,10,44,197,47,13,20,067,32,23,10,041,00*73
$PGRME,,M,,M,,M*00
$PGRMM,WGS 84*06
$GPRMC,183410,V,4124.7502,N,08152.2393,W,,,010305,007.9,W*61
$GPGGA,183410,4124.7502,N,08152.2393,W,0,00,,,M,,M,,*46
$GPGSA,A,1,,,,,,,,,,,,,,,*1E
$GPGSV,3,3,12,24,18,067,00,30,29,304,00,33,09,106,40,35,34,141,43*73
$PGRME,,M,,M,,M*00
$PGRMM,WGS 84*06
$GPRMC,183411,V,4124.7502,N,08152.2393,W,,,010305,007.9,W*60
$GPGGA,183411,4124.7502,N,08152.2393,W,0,00,,,M,,M,,*47
$GPGSA,A,1,,,,,,,,,,,,,,,*1E
$GPGSV,3,1,12,02,71,317,31,04,50,056,00,05,43,263,00,06,02,307,00*7C
$PGRME,,M,,M,,M*00
$PGRMM,WGS 84*06
$GPRMC,183412,V,4124.7502,N,08152.2393,W,,,010305,007.9,W*63
$GPGGA,183412,4124.7502,N,08152.2393,W,0,00,,,M,,M,,*44
$GPGSA,A,1,,,,,,,,,,,,,,,*1E
$GPGSV,3,2,12,07,20,126,00,10,44,197,47,13,20,067,00,23,10,041,00*72
$PGRME,,M,,M,,M*00
$PGRMM,WGS 84*06
$GPRMC,183413,V,4124.7502,N,08152.2393,W,,,010305,007.9,W*62
$GPGGA,183413,4124.7502,N,08152.2393,W,0,00,,,M,,M,,*45
$GPGSA,A,1,,,,,,,,,,,,,,,*1E
$GPGSV,3,3,12,24,18,067,00,30,29,304,00,33,09,106,40,35,34,141,43*73
$PGRME,,M,,M,,M*00
$PGRMM,WGS 84*06
$GPRMC,183414,V,4124.7502,N,08152.2393,W,,,010305,007.9,W*65
$GPGGA,183414,4124.7502,N,08152.2393,W,0,00,,,M,,M,,*42
$GPGSA,A,1,,,,,,,,,,,,,,,*1E
$GPGSV,3,1,12,02,71,317,32,04,50,056,00,05,43,263,00,06,02,307,00*7F
$PGRME,,M,,M,,M*00
$PGRMM,WGS 84*06
$GPRMC,183415,V,4124.7502,N,08152.2393,W,,,010305,007.9,W*64
$GPGGA,183415,4124.7502,N,08152.2393,W,0,00,,,M,,M,,*43
$GPGSA,A,1,,,,,,,,,,,,,,,*1E
$GPGSV,3,2,12,07,20,126,00,10,44,197,47,13,20,067,00,23,10,041,00*72
$PGRME,,M,,M,,M*00
$PGRMM,WGS 84*06
$GPRMC,183416,V,4124.7502,N,08152.2393,W,,,010305,007.9,W*67
$GPGGA,183416,4124.7502,N,08152.2393,W,0,00,,,M,,M,,*40
$GPGSA,A,1,,,,,,,,,,,,,,,*1E
$GPGSV,3,3,12,24,18,067,00,30,29,304,00,33,09,106,40,35,34,141,43*73
$PGRME,,M,,M,,M*00
$PGRMM,WGS 84*06
$GPRMC,183417,V,4124.7502,N,08152.2393,W,,,010305,007.9,W*66
$GPGGA,183417,4124.7502,N,08152.2393,W,0,00,,,M,,M,,*41
$GPGSA,A,1,,,,,,,,,,,,,,,*1E
$GPGSV,3,1,12,02,71,317,31,04,50,056,00,05,43,263,00,06,02,307,00*7C
$PGRME,,M,,M,,M*00
$PGRMM,WGS 84*06
$GPRMC,183418,V,4124.7502,N,08152.2393,W,,,010305,007.9,W*69
$GPGGA,183418,4124.7502,N,08152.2393,W,0,00,,,M,,M,,*4E
$GPGSA,A,1,,,,,,,,,,,,,,,*1E
$GPGSV,3,2,12,07,20,126,00,10,44,197,45,13,20,067,00,23,10,041,00*70
$PGRME,,M,,M,,M*00
$PGRMM,WGS 84*06
$GPRMC,183419,V,4124.7502,N,08152.2393,W,,,010305,007.9,W*68
$GPGGA,183419,4124.7502,N,08152.2393,W,0,00,,,M,,M,,*4F
$GPGSA,A,1,,,,,,,,,,,,,,,*1E
$GPGSV,3,3,12,24,18,067,00,30,29,304,00,33,09,106,41,35,34,141,43*72
$PGRME,,M,,M,,M*00
$PGRMM,WGS 84*06
$GPRMC,183420,V,4124.7502,N,08152.2393,W,,,010305,007.9,W*62
$GPGGA,183420,4124.7502,N,08152.2393,W,0,00,,,M,,M,,*45
$GPGSA,A,1,,,,,,,,,,,,,,,*1E
$GPGSV,3,1,12,02,71,317,32,04,50,056,00,05,43,263,00,06,02,307,00*7F
$PGRME,,M,,M,,M*00
$PGRMM,WGS 84*06
$GPRMC,183421,V,4124.7502,N,08152.2393,W,,,010305,007.9,W*63
$GPGGA,183421,4124.7502,N,08152.2393,W,0,00,,,M,,M,,*44
$GPGSA,A,1,,,,,,,,,,,,,,,*1E
$GPGSV,3,2,12,07,20,126,00,10,44,197,46,13,20,067,00,23,10,041,00*73
$PGRME,,M,,M,,M*00
$PGRMM,WGS 84*06
$GPRMC,183422,V,4124.7502,N,08152.2393,W,,,010305,007.9,W*60
$GPGGA,183422,4124.7502,N,08152.2393,W,0,00,,,M,,M,,*47
$GPGSA,A,1,,,,,,,,,,,,,,,*1E
$GPGSV,3,3,12,24,18,067,00,30,29,304,00,33,09,106,40,35,34,141,43*73
$PGRME,,M,,M,,M*00
$PGRMM,WGS 84*06
$GPRMC,183423,V,4124.7502,N,08152.2393,W,,,010305,007.9,W*61
$GPGGA,183423,4124.7502,N,08152.2393,W,0,00,,,M,,M,,*46
$GPGSA,A,1,,,,,,,,,,,,,,,*1E
$GPGSV,3,1,12,02,71,317,32,04,50,056,00,05,43,263,00,06,02,307,00*7F
$PGRME,,M,,M,,M*00
$PGRMM,WGS 84*06
$GPRMC,183424,V,4124.7502,N,08152.2393,W,,,010305,007.9,W*66
$GPGGA,183424,4124.7502,N,08152.2393,W,0,00,,,M,,M,,*41
$GPGSA,A,1,,,,,,,,,,,,,,,*1E
$GPGSV,3,2,12,07,20,126,00,10,44,197,47,13,20,067,00,23,10,041,00*72
$PGRME,,M,,M,,M*00
$PGRMM,WGS 84*06
$GPRMC,183425,V,4124.7502,N,08152.2393,W,,,010305,007.9,W*67
$GPGGA,183425,4124.7502,N,08152.2393,W,0,00,,,M,,M,,*40
$GPGSA,A,1,,,,,,,,,,,,,,,*1E
$GPGSV,3,3,12,24,18,067,00,30,29,304,00,33,09,106,40,35,34,141,43*73
$PGRME,,M,,M,,M*00
$PGRMM,WGS 84*06
$GPRMC,183426,V,4124.7502,N,08152.2393,W,,,010305,007.9,W*64
$GPGGA,183426,4124.7502,N,08152.2393,W,0,00,,,M,,M,,*43
$GPGSA,A,1,,,,,,,,,,,,,,,*1E
$GPGSV,3,1,12,02,71,317,33,04,50,056,00,05,43,263,00,06,02,307,00*7E
$PGRME,,M,,M,,M*00
$PGRMM,WGS 84*06
$GPRMC,183427,V,4124.7502,N,08152.2393,W,,,010305,007.9,W*65
$GPGGA,183427,4124.7502,N,08152.2393,W,0,00,,,M,,M,,*42
$GPGSA,A,1,,,,,,,,,,,,,,,*1E
$GPGSV,3,2,12,07,20,126,00,10,44,197,47,13,20,067,00,23,10,041,00*72
$PGRME,,M,,M,,M*00
$PGRMM,WGS 84*06
$GPRMC,183428,V,4124.7502,N,08152.2393,W,,,010305,007.9,W*6A
$GPGGA,183428,4124.7502,N,08152.2393,W,0,00,,,M,,M,,*4D
$GPGSA,A,1,,,,,,,,,,,,,,,*1E
$GPGSV,3,3,12,24,18,067,00,30,29,304,00,33,09,106,39,35,34,141,43*7D
$PGRME,,M,,M,,M*00
$PGRMM,WGS 84*06
$GPRMC,183429,V,4124.7502,N,08152.2393,W,,,010305,007.9,W*6B
$GPGGA,183429,4124.7502,N,08152.2393,W,0,00,,,M,,M,,*4C
$GPGSA,A,1,,,,,,,,,,,,,,,*1E
$GPGSV,3,1,12,02,71,317,33,04,50,056,00,05,43,263,00,06,02,307,00*7E
$PGRME,,M,,M,,M*00
$PGRMM,WGS 84*06
$GPRMC,183430,V,4124.7502,N,08152.2393,W,,,010305,007.9,W*63
$GPGGA,183430,4124.7502,N,08152.2393,W,0,00,,,M,,M,,*44
$GPGSA,A,1,,,,,,,,,,,,,,,*1E
$GPGSV,3,2,12,07,20,126,00,10,44,197,47,13,20,067,00,23,10,041,00*72
$PGRME,,M,,M,,M*00
$PGRMM,WGS 84*06
$GPRMC,183431,V,4124.7502,N,08152.2393,W,,,010305,007.9,W*62
$GPGGA,183431,4124.7502,N,08152.2393,W,0,00,,,M,,M,,*45
$GPGSA,A,1,,,,,,,,,,,,,,,*1E
$GPGSV,3,3,12,24,18,067,00,30,29,304,00,33,09,106,40,35,34,141,43*73
$PGRME,,M,,M,,M*00
$PGRMM,WGS 84*06
$GPRMC,183432,V,4124.7502,N,08152.2393,W,,,010305,007.9,W*61
$GPGGA,183432,4124.7502,N,08152.2393,W,0,00,,,M,,M,,*46
$GPGSA,A,1,,,,,,,,,,,,,,,*1E
$GPGSV,3,1,12,02,71,317,33,04,50,056,00,05,43,263,00,06,02,307,00*7E
$PGRME,,M,,M,,M*00
$PGRMM,WGS 84*06
$GPRMC,183433,V,4124.7502,N,08152.2393,W,,,010305,007.9,W*60
$GPGGA,183433,4124.7502,N,08152.2393,W,0,00,,,M,,M,,*47
$GPGSA,A,1,,,,,,,,,,,,,,,*1E
$GPGSV,3,2,12,07,20,126,00,10,44,197,47,13,20,067,00,23,10,041,00*72
$PGRME,,M,,M,,M*00
$PGRMM,WGS 84*06
$GPRMC,183434,V,4124.7502,N,08152.2393,W,,,010305,007.9,W*67
$GPGGA,183434,4124.7502,N,08152.2393,W,0,00,,,M,,M,,*40
$GPGSA,A,1,,,,,,,,,,,,,,,*1E
$GPGSV,3,3,12,24,18,067,00,30,29,304,00,33,09,106,41,35,34,141,43*72
$PGRME,,M,,M,,M*00
$PGRMM,WGS 84*06
$GPRMC,183435,V,4124.7502,N,08152.2393,W,,,010305,007.9,W*66
$GPGGA,183435,4124.7502,N,08152.2393,W,0,00,,,M,,M,,*41
$GPGSA,A,1,,,,,,,,,,,,,,,*1E
$GPGSV,3,1,12,02,71,317,32,04,50,056,00,05,43,263,00,06,02,307,00*7F
$PGRME,,M,,M,,M*00
$PGRMM,WGS 84*06
$GPRMC,183436,V,4124.7502,N,08152.2393,W,,,010305,007.9,W*65
$GPGGA,183436,4124.7502,N,08152.2393,W,0,00,,,M,,M,,*42
$GPGSA,A,1,,,,,,,,,,,,,,,*1E
$GPGSV,3,2,12,07,20,126,31,10,44,197,48,13,20,067,00,23,10,041,00*7F
$PGRME,,M,,M,,M*00
$PGRMM,WGS 84*06
$GPRMC,183437,V,4124.7502,N,08152.2393,W,,,010305,007.9,W*64
$GPGGA,183437,4124.7502,N,08152.2393,W,0,00,,,M,,M,,*43
$GPGSA,A,1,,,,,,,,,,,,,,,*1E
$GPGSV,3,3,12,24,18,067,00,30,29,304,00,33,09,106,41,35,34,141,43*72
$PGRME,,M,,M,,M*00
$PGRMM,WGS 84*06
$GPRMC,183438,V,4124.7502,N,08152.2393,W,,,010305,007.9,W*6B
$GPGGA,183438,4124.7502,N,08152.2393,W,0,00,,,M,,M,,*4C
$GPGSA,A,1,,,,,,,,,,,,,,,*1E
$GPGSV,3,1,12,02,71,317,00,04,50,056,00,05,43,263,00,06,02,307,00*7E
$PGRME,,M,,M,,M*00
$PGRMM,WGS 84*06
$GPRMC,183439,V,4124.7502,N,08152.2393,W,,,010305,007.9,W*6A
$GPGGA,183439,4124.7502,N,08152.2393,W,0,00,,,M,,M,,*4D
$GPGSA,A,1,,,,,,,,,,,,,,,*1E
$GPGSV,3,2,12,07,20,126,00,10,44,197,48,13,20,067,00,23,10,041,00*7D
$PGRME,,M,,M,,M*00
$PGRMM,WGS 84*06
$GPRMC,183440,V,4124.7502,N,08152.2393,W,,,010305,007.9,W*64
$GPGGA,183440,4124.7502,N,08152.2393,W,0,00,,,M,,M,,*43
$GPGSA,A,1,,,,,,,,,,,,,,,*1E
$GPGSV,3,3,12,24,18,067,00,30,29,304,00,33,09,106,41,35,34,141,43*72
$PGRME,,M,,M,,M*00
$PGRMM,WGS 84*06
$GPRMC,183441,V,4124.7502,N,08152.2393,W,,,010305,007.9,W*65
$GPGGA,183441,4124.7502,N,08152.2393,W,0,00,,,M,,M,,*42
$GPGSA,A,1,,,,,,,,,,,,,,,*1E
$GPGSV,3,1,12,02,71,317,00,04,50,056,35,05,43,263,00,06,02,307,00*78
$PGRME,,M,,M,,M*00
$PGRMM,WGS 84*06
$GPRMC,183442,V,4124.7502,N,08152.2393,W,,,010305,007.9,W*66
$GPGGA,183442,4124.7502,N,08152.2393,W,0,00,,,M,,M,,*41
$GPGSA,A,1,,,,,,,,,,,,,,,*1E
$GPGSV,3,2,12,07,20,126,00,10,44,197,49,13,20,067,00,23,09,040,00*75
$PGRME,,M,,M,,M*00
$PGRMM,WGS 84*06
$GPRMC,183443,V,4124.7502,N,08152.2393,W,,,010305,007.9,W*67
$GPGGA,183443,4124.7502,N,08152.2393,W,0,00,,,M,,M,,*40
$GPGSA,A,1,,,,,,,,,,,,,,,*1E
$GPGSV,3,3,12,24,18,067,00,30,29,304,00,33,09,106,40,35,34,141,43*73
$PGRME,,M,,M,,M*00
$PGRMM,WGS 84*06
$GPRMC,183444,V,4124.7502,N,08152.2393,W,,,010305,007.9,W*60
$GPGGA,183444,4124.7502,N,08152.2393,W,0,00,,,M,,M,,*47
$GPGSA,A,1,,,,,,,,,,,,,,,*1E
$GPGSV,3,1,12,02,71,317,00,04,50,056,35,05,43,263,00,06,02,307,00*78
$PGRME,,M,,M,,M*00
$PGRMM,WGS 84*06
$GPRMC,183445,V,4124.7502,N,08152.2393,W,,,010305,007.9,W*61
$GPGGA,183445,4124.7502,N,08152.2393,W,0,00,,,M,,M,,*46
$GPGSA,A,1,,,,,,,,,,,,,,,*1E
$GPGSV,3,2,12,07,20,126,00,10,44,197,49,13,20,067,00,23,09,040,00*75
$PGRME,,M,,M,,M*00
$PGRMM,WGS 84*06
$GPRMC,183446,V,4124.7502,N,08152.2393,W,,,010305,007.9,W*62
$GPGGA,183446,4124.7502,N,08152.2393,W,0,00,,,M,,M,,*45
$GPGSA,A,1,,,,,,,,,,,,,,,*1E
$GPGSV,3,3,12,24,17,068,00,30,29,304,00,33,09,106,40,35,34,141,43*73
$PGRME,,M,,M,,M*00
$PGRMM,WGS 84*06
$GPRMC,183447,V,4124.7502,N,08152.2393,W,,,010305,007.9,W*63
$GPGGA,183447,4124.7502,N,08152.2393,W,0,00,,,M,,M,,*44
$GPGSA,A,1,,,,,,,,,,,,,,,*1E
$GPGSV,3,1,12,02,71,317,00,04,50,056,35,05,43,263,00,06,02,307,00*78
$PGRME,,M,,M,,M*00
$PGRMM,WGS 84*06
$GPRMC,183448,V,4124.7502,N,08152.2393,W,,,010305,007.9,W*6C
$GPGGA,183448,4124.7502,N,08152.2393,W,0,00,,,M,,M,,*4B
$GPGSA,A,1,,,,,,,,,,,,,,,*1E
$GPGSV,3,2,12,07,20,126,00,10,44,197,49,13,20,067,00,23,09,040,00*75
$PGRME,,M,,M,,M*00
$PGRMM,WGS 84*06
$GPRMC,183449,V,4124.7502,N,08152.2393,W,,,010305,007.9,W*6D
$GPGGA,183449,4124.7502,N,08152.2393,W,0,00,,,M,,M,,*4A
$GPGSA,A,1,,,,,,,,,,,,,,,*1E
$GPGSV,3,3,12,24,17,068,00,30,29,304,00,33,09,106,41,35,34,141,43*72
$PGRME,,M,,M,,M*00
$PGRMM,WGS 84*06
$GPRMC,183450,V,4124.7502,N,08152.2393,W,,,010305,007.9,W*65
$GPGGA,183450,4124.7502,N,08152.2393,W,0,00,,,M,,M,,*42
$GPGSA,A,1,,,,,,,,,,,,,,,*1E
$GPGSV,3,1,12,02,71,317,00,04,50,056,36,05,43,263,00,06,02,307,00*7B
$PGRME,,M,,M,,M*00
$PGRMM,WGS 84*06
$GPRMC,183451,V,4124.7502,N,08152.2393,W,,,010305,007.9,W*64
$GPGGA,183451,4124.7502,N,08152.2393,W,0,00,,,M,,M,,*43
$GPGSA,A,1,,,,,,,,,,,,,,,*1E
$GPGSV,3,2,12,07,20,126,00,10,44,197,49,13,20,067,00,23,09,040,00*75
$PGRME,,M,,M,,M*00
$PGRMM,WGS 84*06
$GPRMC,183452,V,4124.7502,N,08152.2393,W,,,010305,007.9,W*67
$GPGGA,183452,4124.7502,N,08152.2393,W,0,00,,,M,,M,,*40
$GPGSA,A,1,,,,,,,,,,,,,,,*1E
$GPGSV,3,3,12,24,17,068,00,30,29,304,00,33,09,106,40,35,34,141,43*73
$PGRME,,M,,M,,M*00
$PGRMM,WGS 84*06
$GPRMC,183453,V,4124.7502,N,08152.2393,W,,,010305,007.9,W*66
$GPGGA,183453,4124.7502,N,08152.2393,W,0,00,,,M,,M,,*41
$GPGSA,A,1,,,,,,,,,,,,,,,*1E
$GPGSV,3,1,12,02,71,317,00,04,50,056,36,05,43,263,00,06,02,307,00*7B
$PGRME,,M,,M,,M*00
$PGRMM,WGS 84*06
$GPRMC,183453,A,4124.6743,N,08152.2490,W,000.0,000.0,010305,007.9,W*73
$GPGGA,183453,4124.6743,N,08152.2490,W,2,04,2.5,232.9,M,-34.0,M,,*7C
$GPGSA,A,2,,04,,,07,10,,,,,,35,2.7,2.5,1.0*34
$GPGSV,3,2,12,07,20,126,32,10,44,197,49,13,20,067,00,23,09,040,00*74
$PGRME,252.5,M,50.0,M,257.4,M*1F
$PGRMM,WGS 84*06
$GPRMC,183454,A,4124.7340,N,08152.2465,W,000.0,000.0,010305,007.9,W*78
$GPGGA,183454,4124.7340,N,08152.2465,W,2,04,4.2,259.7,M,-34.0,M,,*75
$GPGSA,A,2,,04,,,07,10,,,,,,35,5.4,4.2,1.7*36
$GPGSV,3,3,12,24,17,068,00,30,29,304,00,33,09,106,41,35,34,141,43*72
$PGRME,13.4,M,25.9,M,29.1,M*1C
$PGRMM,WGS 84*06
$GPRMC,183455,A,4124.7339,N,08152.2463,W,000.0,000.0,010305,007.9,W*71
$GPGGA,183455,4124.7339,N,08152.2463,W,2,04,2.5,259.3,M,-34.0,M,,*79
$GPGSA,A,2,,04,,,07,10,,,,,,35,2.7,2.5,1.0*34
$GPGSV,3,1,12,02,71,317,00,04,50,056,36,05,43,263,00,06,02,307,00*7B
$PGRME,13.6,M,28.3,M,31.5,M*14
$PGRMM,WGS 84*06
$GPRMC,183456,A,4124.7342,N,08152.2464,W,000.0,000.0,010305,007.9,W*79
$GPGGA,183456,4124.7342,N,08152.2464,W,2,04,2.5,259.0,M,-34.0,M,,*72
$GPGSA,A,2,,04,,,07,10,,,,,,35,2.7,2.5,1.0*34
$GPGSV,3,2,12,07,20,126,31,10,44,197,50,13,20,067,00,23,09,040,00*7F
$PGRME,13.6,M,28.3,M,31.5,M*14
$PGRMM,WGS 84*06
$GPRMC,183457,A,4124.7342,N,08152.2464,W,000.0,000.0,010305,007.9,W*78
$GPGGA,183457,4124.7342,N,08152.2464,W,2,04,2.5,258.8,M,-34.0,M,,*7A
$GPGSA,A,2,,04,,,07,10,,,,,,35,2.7,2.5,1.0*34
$GPGSV,3,3,12,24,17,068,00,30,29,304,00,33,09,106,41,35,34,141,43*72
$PGRME,13.8,M,30.4,M,33.6,M*15
$PGRMM,WGS 84*06
$GPRMC,183458,A,4124.7341,N,08152.2447,W,000.0,000.0,010305,007.9,W*75
$GPGGA,183458,4124.7341,N,08152.2447,W,2,04,2.5,258.6,M,-34.0,M,,*79
$GPGSA,A,2,,04,,,07,10,,,,,,35,2.7,2.5,1.0*34
$GPGSV,3,1,12,02,71,317,00,04,50,056,35,05,43,263,00,06,02,307,00*78
$PGRME,13.8,M,30.4,M,33.6,M*15
$PGRMM,WGS 84*06
$GPRMC,183459,A,4124.7340,N,08152.2437,W,000.0,000.0,010305,007.9,W*72
$GPGGA,183459,4124.7340,N,08152.2437,W,2,04,2.5,258.4,M,-34.0,M,,*7C
$GPGSA,A,2,,04,,,07,10,,,,,,35,2.7,2.5,1.0*34
$GPGSV,3,2,12,07,20,126,32,10,44,197,50,13,20,067,32,23,09,040,00*7D
$PGRME,13.8,M,30.4,M,33.6,M*15
$PGRMM,WGS 84*06
$GPRMC,183500,A,4124.7338,N,08152.2429,W,000.0,000.0,010305,007.9,W*7F
$GPGGA,183500,4124.7338,N,08152.2429,W,2,04,4.2,211.2,M,-34.0,M,,*7B
$GPGSA,A,2,,04,,,07,10,,,,,,35,5.4,4.2,1.7*36
$GPGSV,3,3,12,24,17,068,00,30,29,304,00,33,09,106,40,35,34,141,43*73
$PGRME,13.4,M,25.8,M,29.1,M*1D
$PGRMM,WGS 84*06
$GPRMC,183501,A,4124.7346,N,08152.2441,W,001.5,348.3,010305,007.9,W*71
$GPGGA,183501,4124.7346,N,08152.2441,W,2,04,2.5,211.3,M,-34.0,M,,*7D
$GPGSA,A,2,,04,,,07,10,,,,,,35,2.7,2.5,1.0*34
$GPGSV,3,1,12,02,71,317,00,04,50,056,34,05,43,263,00,06,02,307,00*79
$PGRME,13.6,M,28.2,M,31.4,M*14
$PGRMM,WGS 84*06
$GPRMC,183502,A,4124.7477,N,08152.2520,W,001.5,348.3,010305,007.9,W*71
$GPGGA,183502,4124.7477,N,08152.2520,W,2,04,6.9,211.4,M,-34.0,M,,*72
$GPGSA,A,2,,04,,,07,10,,,,,,35,7.1,6.9,1.0*3F
$GPGSV,3,2,12,07,20,126,35,10,44,197,50,13,20,067,32,23,09,040,00*7A
$PGRME,13.6,M,28.2,M,31.4,M*14
$PGRMM,WGS 84*06
$GPRMC,183503,A,4124.7413,N,08152.2473,W,000.0,348.3,010305,007.9,W*71
$GPGGA,183503,4124.7413,N,08152.2473,W,2,04,4.2,228.9,M,-34.0,M,,*78
$GPGSA,A,2,,04,,,07,10,,,,,,35,9.0,4.2,1.7*3E
$GPGSV,3,3,12,24,17,068,00,30,29,304,00,33,09,106,40,35,34,141,43*73
$PGRME,13.4,M,25.8,M,29.1,M*1D
$PGRMM,WGS 84*06
$GPRMC,183504,A,4124.7413,N,08152.2473,W,000.0,348.3,010305,007.9,W*76
$GPGGA,183504,4124.7413,N,08152.2473,W,2,04,4.2,229.1,M,-34.0,M,,*76
$GPGSA,A,2,,04,,,07,10,,,,,,35,9.0,4.2,1.7*3E
$GPGSV,3,1,12,02,71,317,00,04,50,056,33,05,43,263,00,06,02,307,00*7E
$PGRME,13.4,M,25.8,M,29.1,M*1D
$PGRMM,WGS 84*06
$GPRMC,183505,A,4124.7414,N,08152.2473,W,000.0,348.3,010305,007.9,W*70
$GPGGA,183505,4124.7414,N,08152.2473,W,2,04,8.4,229.3,M,-34.0,M,,*78
$GPGSA,A,2,,04,,,07,10,,,,,,35,12.3,8.4,1.0*0A
$GPGSV,3,2,12,07,20,126,34,10,44,197,51,13,20,067,00,23,09,040,00*7B
$PGRME,13.4,M,25.8,M,29.1,M*1D
$PGRMM,WGS 84*06
$GPRMC,183506,A,4124.7415,N,08152.2473,W,000.0,348.3,010305,007.9,W*72
$GPGGA,183506,4124.7415,N,08152.2473,W,2,04,8.4,229.4,M,-34.0,M,,*7D
$GPGSA,A,2,,04,,,07,10,,,,,,35,12.3,8.4,1.0*0A
$GPGSV,3,3,12,24,17,068,00,30,29,304,00,33,09,106,40,35,34,141,43*73
$PGRME,13.4,M,25.8,M,29.1,M*1D
$PGRMM,WGS 84*06
$GPRMC,183507,A,4124.7416,N,08152.2473,W,000.0,348.3,010305,007.9,W*70
$GPGGA,183507,4124.7416,N,08152.2473,W,2,04,11.8,229.5,M,-34.0,M,,*4A
$GPGSA,A,2,,04,,,07,10,,,,,,35,14.9,11.8,1.0*32
$GPGSV,3,1,12,02,71,317,00,04,50,056,00,05,43,263,00,06,02,307,00*7E
$PGRME,13.4,M,25.8,M,29.1,M*1D
$PGRMM,WGS 84*06
$GPRMC,183508,A,4124.7417,N,08152.2473,W,000.0,348.3,010305,007.9,W*7E
$GPGGA,183508,4124.7417,N,08152.2473,W,2,04,14.5,229.6,M,-34.0,M,,*4F
$GPGSA,A,2,,04,,,07,10,,,,,,35,17.0,14.5,1.0*30
$GPGSV,3,2,12,07,20,126,36,10,44,197,51,13,20,067,00,23,09,040,00*79
$PGRME,13.4,M,25.8,M,29.1,M*1D
$PGRMM,WGS 84*06
$GPRMC,183509,A,4124.7418,N,08152.2473,W,000.0,348.3,010305,007.9,W*70
$GPGGA,183509,4124.7418,N,08152.2473,W,2,04,16.7,229.7,M,-34.0,M,,*40
$GPGSA,A,2,,04,,,07,10,,,,,,35,18.8,16.7,1.0*37
$GPGSV,3,3,12,24,17,068,00,30,29,303,00,33,09,106,40,35,34,141,43*74
$PGRME,13.4,M,25.8,M,29.1,M*1D
$PGRMM,WGS 84*06
$GPRMC,183510,A,4124.7418,N,08152.2473,W,000.0,348.3,010305,007.9,W*78
$GPGGA,183510,4124.7418,N,08152.2473,W,2,04,18.5,229.7,M,-34.0,M,,*44
$GPGSA,A,2,,04,,,07,10,,,,,,35,20.2,18.5,1.0*3A
$GPGSV,3,1,12,02,71,317,00,04,50,056,00,05,43,263,00,06,02,307,00*7E
$PGRME,13.4,M,25.8,M,29.1,M*1D
$PGRMM,WGS 84*06
$GPRMC,183511,A,4124.7419,N,08152.2473,W,000.0,348.3,010305,007.9,W*78
$GPGGA,183511,4124.7419,N,08152.2473,W,2,04,20.0,229.8,M,-34.0,M,,*45
$GPGSA,A,2,,04,,,07,10,,,,,,35,21.3,20.0,1.0*34
$GPGSV,3,2,12,07,20,126,36,10,44,197,51,13,20,067,00,23,09,040,00*79
$PGRME,13.4,M,25.8,M,29.1,M*1D
$PGRMM,WGS 84*06
$GPRMC,183512,A,4124.7420,N,08152.2473,W,000.0,348.3,010305,007.9,W*71
$GPGGA,183512,4124.7420,N,08152.2473,W,2,00,21.1,229.8,M,-34.0,M,,*48
$GPGSA,A,2,,,,,,,,,,,,,22.2,21.1,1.0*32
$GPGSV,3,3,12,24,17,068,00,30,29,303,00,33,09,106,41,35,34,141,43*75
$PGRME,13.4,M,25.8,M,29.1,M*1D
$PGRMM,WGS 84*06
$GPRMC,183513,A,4124.7421,N,08152.2472,W,000.0,348.3,010305,007.9,W*70
$GPGGA,183513,4124.7421,N,08152.2472,W,2,00,21.1,229.9,M,-34.0,M,,*48
$GPGSA,A,2,,,,,,,,,,,,,22.2,21.1,1.0*32
$GPGSV,3,1,12,02,71,317,00,04,50,056,00,05,43,263,00,06,02,307,00*7E
$PGRME,13.4,M,25.8,M,29.1,M*1D
$PGRMM,WGS 84*06
$GPRMC,183514,A,4124.7422,N,08152.2472,W,000.0,348.3,010305,007.9,W*74
$GPGGA,183514,4124.7422,N,08152.2472,W,2,00,21.1,229.9,M,-34.0,M,,*4C
$GPGSA,A,2,,,,,,,,,,,,,22.2,21.1,1.0*32
$GPGSV,3,2,12,07,20,126,00,10,44,197,50,13,20,067,00,23,09,040,00*7D
$PGRME,13.4,M,25.8,M,29.1,M*1D
$PGRMM,WGS 84*06
$GPRMC,183515,A,4124.7422,N,08152.2472,W,000.0,348.3,010305,007.9,W*75
$GPGGA,183515,4124.7422,N,08152.2472,W,2,00,21.1,229.9,M,-34.0,M,,*4D
$GPGSA,A,2,,,,,,,,,,,,,22.2,21.1,1.0*32
$GPGSV,3,3,12,24,17,068,00,30,29,303,00,33,09,106,41,35,34,141,43*75
$PGRME,13.4,M,25.8,M,29.1,M*1D
$PGRMM,WGS 84*06
$GPRMC,183516,A,4124.7423,N,08152.2472,W,000.0,348.3,010305,007.9,W*77
$GPGGA,183516,4124.7423,N,08152.2472,W,2,00,21.1,229.9,M,-34.0,M,,*4F
$GPGSA,A,2,,,,,,,,,,,,,22.2,21.1,1.0*32
$GPGSV,3,1,12,02,71,317,00,04,50,056,00,05,43,263,00,06,02,307,00*7E
$PGRME,13.4,M,25.8,M,29.1,M*1D
$PGRMM,WGS 84*06
$GPRMC,183517,A,4124.7424,N,08152.2472,W,000.0,348.3,010305,007.9,W*71
$GPGGA,183517,4124.7424,N,08152.2472,W,2,00,22.1,229.9,M,-34.0,M,,*4A
$GPGSA,A,2,,,,,,,,,,,,,23.0,22.1,1.0*32
$GPGSV,3,2,12,07,20,126,31,10,44,197,50,13,20,067,00,23,09,040,00*7F
$PGRME,13.4,M,25.8,M,29.1,M*1D
$PGRMM,WGS 84*06
$GPRMC,183518,A,4124.7425,N,08152.2472,W,000.0,348.3,010305,007.9,W*7F
$GPGGA,183518,4124.7425,N,08152.2472,W,2,00,22.1,229.9,M,-34.0,M,,*44
$GPGSA,A,2,,,,,,,,,,,,,23.0,22.1,1.0*32
$GPGSV,3,3,12,24,17,068,00,30,29,303,00,33,09,106,41,35,34,141,43*75
$PGRME,13.4,M,25.8,M,29.1,M*1D
$PGRMM,WGS 84*06
$GPRMC,183519,A,4124.7426,N,08152.2472,W,000.0,348.3,010305,007.9,W*7D
$GPGGA,183519,4124.7426,N,08152.2472,W,2,00,22.1,229.9,M,-34.0,M,,*46
$GPGSA,A,2,,,,,,,,,,,,,23.0,22.1,1.0*32
$GPGSV,3,1,12,02,71,317,00,04,50,056,00,05,43,263,00,06,02,307,00*7E
$PGRME,13.4,M,25.8,M,29.1,M*1D
$PGRMM,WGS 84*06
$GPRMC,183520,A,4124.7427,N,08152.2472,W,000.0,348.3,010305,007.9,W*76
$GPGGA,183520,4124.7427,N,08152.2472,W,2,00,22.1,229.9,M,-34.0,M,,*4D
$GPGSA,A,2,,,,,,,,,,,,,23.0,22.1,1.0*32
$GPGSV,3,2,12,07,20,126,00,10,44,197,50,13,20,067,00,23,09,040,00*7D
$PGRME,13.4,M,25.8,M,29.1,M*1D
$PGRMM,WGS 84*06
$GPRMC,183521,A,4124.7427,N,08152.2471,W,000.0,348.3,010305,007.9,W*74
$GPGGA,183521,4124.7427,N,08152.2471,W,2,00,22.1,229.9,M,-34.0,M,,*4F
$GPGSA,A,2,,,,,,,,,,,,,23.0,22.1,1.0*32
$GPGSV,3,3,12,24,17,068,00,30,29,303,00,33,09,106,41,35,34,141,43*75
$PGRME,13.4,M,25.8,M,29.1,M*1D
$PGRMM,WGS 84*06
$GPRMC,183522,A,4124.7428,N,08152.2471,W,000.0,348.3,010305,007.9,W*78
$GPGGA,183522,4124.7428,N,08152.2471,W,2,00,22.1,229.9,M,-34.0,M,,*43
$GPGSA,A,2,,,,,,,,,,,,,23.0,22.1,1.0*32
$GPGSV,3,1,12,02,72,320,00,04,50,056,35,05,43,263,00,06,02,307,00*7F
$PGRME,13.4,M,25.8,M,29.1,M*1D
$PGRMM,WGS 84*06
$GPRMC,183523,A,4124.7429,N,08152.2471,W,000.0,348.3,010305,007.9,W*78
$GPGGA,183523,4124.7429,N,08152.2471,W,2,03,2.5,230.0,M,-34.0,M,,*77
$GPGSA,A,2,,04,,,,10,,,,,,35,2.7,2.5,1.0*33
$GPGSV,3,2,12,07,20,126,00,10,44,197,50,13,20,067,00,23,09,040,00*7D
$PGRME,13.6,M,28.2,M,31.4,M*14
$PGRMM,WGS 84*06
$GPRMC,183524,A,4124.7427,N,08152.2471,W,000.0,348.3,010305,007.9,W*71
$GPGGA,183524,4124.7427,N,08152.2471,W,2,03,2.5,230.0,M,-34.0,M,,*7E
$GPGSA,A,2,,04,,,,10,,,,,,35,2.7,2.5,1.0*33
$GPGSV,3,3,12,24,17,068,00,30,29,303,00,33,09,106,41,35,34,141,43*75
$PGRME,13.6,M,28.2,M,31.4,M*14
$PGRMM,WGS 84*06
$GPRMC,183525,A,4124.7427,N,08152.2471,W,000.0,348.3,010305,007.9,W*70
$GPGGA,183525,4124.7427,N,08152.2471,W,2,03,2.5,230.0,M,-34.0,M,,*7F
$GPGSA,A,2,,04,,,,10,,,,,,35,2.7,2.5,1.0*33
$GPGSV,3,1,12,02,72,320,00,04,50,056,35,05,43,263,00,06,02,307,00*7F
$PGRME,13.6,M,28.2,M,31.4,M*14
$PGRMM,WGS 84*06
$GPRMC,183526,A,4124.7426,N,08152.2471,W,000.0,348.3,010305,007.9,W*72
$GPGGA,183526,4124.7426,N,08152.2471,W,2,04,2.5,227.9,M,-34.0,M,,*75
$GPGSA,A,2,,04,,,07,10,,,,,,35,2.7,2.5,1.0*34
$GPGSV,3,2,12,07,20,126,35,10,44,197,50,13,20,067,00,23,09,040,00*7B
$PGRME,30.5,M,30.6,M,47.2,M*1C
$PGRMM,WGS 84*06
$GPRMC,183527,A,4124.7408,N,08152.2471,W,000.0,348.3,010305,007.9,W*7F
$GPGGA,183527,4124.7408,N,08152.2471,W,2,04,4.2,249.3,M,-34.0,M,,*7B
$GPGSA,A,2,,04,,,07,10,,,,,,35,5.4,4.2,1.7*36
$GPGSV,3,3,12,24,17,068,00,30,29,303,00,33,09,106,40,35,34,141,43*74
$PGRME,13.4,M,25.6,M,28.9,M*1A
$PGRMM,WGS 84*06
$GPRMC,183528,A,4124.7393,N,08152.2468,W,000.0,348.3,010305,007.9,W*7D
$GPGGA,183528,4124.7393,N,08152.2468,W,2,04,8.5,249.1,M,-34.0,M,,*70
$GPGSA,A,2,,04,,,07,10,,,,,,35,9.4,8.5,1.0*36
$GPGSV,3,1,12,02,72,320,00,04,50,056,32,05,43,263,00,06,02,307,00*78
$PGRME,13.4,M,25.6,M,28.9,M*1A
$PGRMM,WGS 84*06
$GPRMC,183529,A,4124.7380,N,08152.2466,W,000.0,348.3,010305,007.9,W*70
$GPGGA,183529,4124.7380,N,08152.2466,W,2,04,4.2,253.8,M,-34.0,M,,*74
$GPGSA,A,2,,04,,,07,10,,,,,,35,9.1,4.2,1.7*3F
$GPGSV,3,2,12,07,20,126,34,10,44,197,49,13,20,067,00,23,09,040,00*72
$PGRME,13.4,M,25.6,M,28.9,M*1A
$PGRMM,WGS 84*06
$GPRMC,183530,A,4124.7371,N,08152.2464,W,000.0,348.3,010305,007.9,W*74
$GPGGA,183530,4124.7371,N,08152.2464,W,2,04,4.2,256.0,M,-34.0,M,,*7D
$GPGSA,A,2,,04,,,07,10,,,,,,35,9.1,4.2,1.7*3F
$GPGSV,3,3,12,24,17,068,00,30,29,303,00,33,09,106,40,35,34,141,43*74
$PGRME,13.4,M,25.6,M,28.9,M*1A
$PGRMM,WGS 84*06
$GPRMC,183531,A,4124.7207,N,08152.2437,W,000.0,348.3,010305,007.9,W*73
$GPGGA,183531,4124.7207,N,08152.2437,W,2,04,8.5,255.9,M,-34.0,M,,*7B
$GPGSA,A,2,,04,,,07,10,,,,,,35,12.4,8.5,1.0*0C
$GPGSV,3,1,12,02,72,320,00,04,49,057,00,05,43,263,00,06,02,307,00*70
$PGRME,13.4,M,25.6,M,28.9,M*1A
$PGRMM,WGS 84*06
$GPRMC,183532,A,4124.7207,N,08152.2436,W,000.0,348.3,010305,007.9,W*71
$GPGGA,183532,4124.7207,N,08152.2436,W,2,04,8.5,255.7,M,-34.0,M,,*77
$GPGSA,A,2,,04,,,07,10,,,,,,35,12.4,8.5,1.0*0C
$GPGSV,3,2,12,07,20,126,33,10,44,197,49,13,20,067,00,23,09,040,00*75
$PGRME,13.4,M,25.6,M,28.9,M*1A
$PGRMM,WGS 84*06
$GPRMC,183533,A,4124.7207,N,08152.2435,W,000.0,348.3,010305,007.9,W*73
$GPGGA,183533,4124.7207,N,08152.2435,W,2,04,8.5,255.6,M,-34.0,M,,*74
$GPGSA,A,2,,04,,,07,10,,,,,,35,12.4,8.5,1.0*0C
$GPGSV,3,3,12,24,17,068,00,30,29,303,00,33,09,106,40,35,34,141,43*74
$PGRME,13.4,M,25.6,M,28.9,M*1A
$PGRMM,WGS 84*06
$GPRMC,183534,A,4124.7207,N,08152.2434,W,000.0,348.3,010305,007.9,W*75
$GPGGA,183534,4124.7207,N,08152.2434,W,2,04,11.9,255.5,M,-34.0,M,,*45
$GPGSA,A,2,,04,,,07,10,,,,,,35,15.1,11.9,1.0*3A
$GPGSV,3,1,12,02,72,320,00,04,49,057,32,05,43,262,00,06,02,307,00*70
$PGRME,13.4,M,25.6,M,28.9,M*1A
$PGRMM,WGS 84*06
$GPRMC,183535,A,4124.7207,N,08152.2434,W,000.0,348.3,010305,007.9,W*74
$GPGGA,183535,4124.7207,N,08152.2434,W,2,04,4.2,264.0,M,-34.0,M,,*7C
$GPGSA,A,2,,04,,,07,10,,,,,,35,9.1,4.2,1.7*3F
$GPGSV,3,2,12,07,20,126,34,10,44,197,48,13,20,067,00,23,09,040,00*73
$PGRME,13.4,M,25.6,M,28.9,M*1A
$PGRMM,WGS 84*06
$GPRMC,183536,A,4124.7211,N,08152.2433,W,000.0,348.3,010305,007.9,W*77
$GPGGA,183536,4124.7211,N,08152.2433,W,2,04,4.2,263.9,M,-34.0,M,,*71
$GPGSA,A,2,,04,,,07,10,,,,,,35,9.1,4.2,1.7*3F
$GPGSV,3,3,12,24,17,068,00,30,29,303,00,33,09,106,41,35,34,141,43*75
$PGRME,13.4,M,25.6,M,28.9,M*1A
$PGRMM,WGS 84*06
$GPRMC,183537,A,4124.7215,N,08152.2432,W,000.0,348.3,010305,007.9,W*73
$GPGGA,183537,4124.7215,N,08152.2432,W,2,04,4.2,263.8,M,-34.0,M,,*74
$GPGSA,A,2,,04,,,07,10,,,,,,35,9.1,4.2,1.7*3F
$GPGSV,3,1,12,02,72,320,00,04,49,057,31,05,43,262,00,06,03,307,00*72
$PGRME,13.4,M,25.6,M,28.9,M*1A
$PGRMM,WGS 84*06
$GPRMC,183538,A,4124.7218,N,08152.2432,W,000.0,348.3,010305,007.9,W*71
$GPGGA,183538,4124.7218,N,08152.2432,W,2,04,8.5,263.7,M,-34.0,M,,*72
$GPGSA,A,2,,04,,,07,10,,,,,,35,12.4,8.5,1.0*0C
$GPGSV,3,2,12,07,20,126,35,10,44,197,48,13,20,067,00,23,09,040,00*72
$PGRME,13.4,M,25.6,M,28.9,M*1A
$PGRMM,WGS 84*06
$GPRMC,183539,A,4124.7221,N,08152.2431,W,000.0,348.3,010305,007.9,W*79
$GPGGA,183539,4124.7221,N,08152.2431,W,2,04,11.9,263.7,M,-34.0,M,,*4E
$GPGSA,A,2,,04,,,07,10,,,,,,35,15.1,11.9,1.0*3A
$GPGSV,3,3,12,24,17,068,00,30,29,303,00,33,09,106,41,35,34,141,43*75
$PGRME,13.4,M,25.6,M,28.9,M*1A
$PGRMM,WGS 84*06
$GPRMC,183540,A,4124.7224,N,08152.2431,W,000.0,348.3,010305,007.9,W*72
$GPGGA,183540,4124.7224,N,08152.2431,W,2,04,2.5,263.6,M,-34.0,M,,*7A
$GPGSA,A,2,,04,,,07,10,,,,,,35,2.7,2.5,1.0*34
$GPGSV,3,1,12,02,72,320,00,04,49,057,32,05,43,262,00,06,03,307,00*71
$PGRME,13.6,M,28.0,M,31.2,M*10
$PGRMM,WGS 84*06
$GPRMC,183541,A,4124.7228,N,08152.2431,W,000.0,348.3,010305,007.9,W*7F
$GPGGA,183541,4124.7228,N,08152.2431,W,2,04,7.1,263.6,M,-34.0,M,,*76
$GPGSA,A,2,,04,,,07,10,,,,,,35,7.2,7.1,1.0*35
$GPGSV,3,2,12,07,19,126,36,10,44,197,47,13,20,067,00,23,09,040,00*74
$PGRME,13.6,M,28.0,M,31.2,M*10
$PGRMM,WGS 84*06
$GPRMC,183542,A,4124.7232,N,08152.2431,W,000.0,348.3,010305,007.9,W*77
$GPGGA,183542,4124.7232,N,08152.2431,W,2,04,10.8,263.6,M,-34.0,M,,*41
$GPGSA,A,2,,04,,,07,10,,,,,,35,10.9,10.8,1.0*37
$GPGSV,3,3,12,24,17,068,00,30,29,303,00,33,09,106,41,35,34,141,43*75
$PGRME,13.6,M,28.0,M,31.2,M*10
$PGRMM,WGS 84*06
$GPRMC,183543,A,4124.7235,N,08152.2431,W,000.0,348.3,010305,007.9,W*71
$GPGGA,183543,4124.7235,N,08152.2431,W,2,04,2.5,263.5,M,-34.0,M,,*7A
$GPGSA,A,2,,04,,,07,10,,,,,,35,2.7,2.5,1.0*34
$GPGSV,3,1,12,02,72,320,36,04,49,057,32,05,43,262,00,06,03,307,00*74
$PGRME,13.9,M,30.2,M,33.4,M*10
$PGRMM,WGS 84*06
$GPRMC,183544,A,4124.7240,N,08152.2432,W,000.0,348.3,010305,007.9,W*77
$GPGGA,183544,4124.7240,N,08152.2432,W,2,03,2.5,263.5,M,-34.0,M,,*7B
$GPGSA,A,2,,04,,,,10,,,,,,35,2.7,2.5,1.0*33
$GPGSV,3,2,12,07,19,126,35,10,44,197,47,13,20,067,36,23,09,040,00*72
$PGRME,13.9,M,30.2,M,33.4,M*10
$PGRMM,WGS 84*06
$GPRMC,183545,A,4124.7244,N,08152.2433,W,000.0,348.3,010305,007.9,W*73
$GPGGA,183545,4124.7244,N,08152.2433,W,2,03,2.5,263.5,M,-34.0,M,,*7F
$GPGSA,A,2,,04,,,,10,,,,,,35,2.7,2.5,1.0*33
$GPGSV,3,3,12,24,17,068,00,30,29,303,00,33,09,106,40,35,34,141,43*74
$PGRME,13.9,M,30.2,M,33.4,M*10
$PGRMM,WGS 84*06
$GPRMC,183546,A,4124.7247,N,08152.2433,W,000.0,348.3,010305,007.9,W*73
$GPGGA,183546,4124.7247,N,08152.2433,W,2,04,4.2,268.5,M,-34.0,M,,*72
$GPGSA,A,2,,04,,,07,10,,,,,,35,5.5,4.2,1.7*37
$GPGSV,3,1,12,02,72,320,37,04,49,057,33,05,43,262,00,06,03,307,00*74
$PGRME,13.4,M,25.5,M,28.8,M*18
$PGRMM,WGS 84*06
$GPRMC,183547,A,4124.7251,N,08152.2434,W,000.0,348.3,010305,007.9,W*72
$GPGGA,183547,4124.7251,N,08152.2434,W,2,04,8.5,268.5,M,-34.0,M,,*78
$GPGSA,A,2,,04,,,07,10,,,,,,35,9.5,8.5,1.0*37
$GPGSV,3,2,12,07,19,126,00,10,44,197,46,13,20,067,35,23,09,040,00*76
$PGRME,13.4,M,25.5,M,28.8,M*18
$PGRMM,WGS 84*06
$GPRMC,183548,A,4124.7254,N,08152.2434,W,000.0,348.3,010305,007.9,W*78
$GPGGA,183548,4124.7254,N,08152.2434,W,2,04,8.5,268.6,M,-34.0,M,,*71
$GPGSA,A,2,,04,,,07,10,,,,,,35,9.5,8.5,1.0*37
$GPGSV,3,3,12,24,17,068,00,30,29,303,00,33,09,106,41,35,34,141,43*75
$PGRME,13.4,M,25.5,M,28.8,M*18
$PGRMM,WGS 84*06
$GPRMC,183549,A,4124.7257,N,08152.2435,W,000.0,348.3,010305,007.9,W*7B
$GPGGA,183549,4124.7257,N,08152.2435,W,2,04,8.5,268.6,M,-34.0,M,,*72
$GPGSA,A,2,,04,,,07,10,,,,,,35,9.5,8.5,1.0*37
$GPGSV,3,1,12,02,72,320,38,04,49,057,00,05,43,262,00,06,03,307,00*7B
$PGRME,13.4,M,25.5,M,28.8,M*18
$PGRMM,WGS 84*06
$GPRMC,183550,A,4124.7259,N,08152.2435,W,000.0,348.3,010305,007.9,W*7D
$GPGGA,183550,4124.7259,N,08152.2435,W,2,04,8.5,268.6,M,-34.0,M,,*74
$GPGSA,A,2,,04,,,07,10,,,,,,35,9.5,8.5,1.0*37
$GPGSV,3,2,12,07,19,126,00,10,44,197,45,13,20,067,34,23,09,040,00*74
$PGRME,13.4,M,25.5,M,28.8,M*18
$PGRMM,WGS 84*06
$GPRMC,183551,A,4124.7262,N,08152.2436,W,000.0,348.3,010305,007.9,W*77
$GPGGA,183551,4124.7262,N,08152.2436,W,2,04,8.5,268.6,M,-34.0,M,,*7E
$GPGSA,A,2,,04,,,07,10,,,,,,35,9.5,8.5,1.0*37
$GPGSV,3,3,12,24,17,068,00,30,29,303,00,33,09,106,41,35,34,141,43*75
$PGRME,13.4,M,25.5,M,28.8,M*18
$PGRMM,WGS 84*06
$GPRMC,183552,A,4124.7264,N,08152.2436,W,000.0,348.3,010305,007.9,W*72
$GPGGA,183552,4124.7264,N,08152.2436,W,2,04,8.5,268.6,M,-34.0,M,,*7B
$GPGSA,A,2,,04,,,07,10,,,,,,35,9.5,8.5,1.0*37
$GPGSV,3,1,12,02,72,320,39,04,49,057,00,05,43,262,00,06,03,307,00*7A
$PGRME,13.4,M,25.5,M,28.8,M*18
$PGRMM,WGS 84*06
$GPRMC,183553,A,4124.7267,N,08152.2437,W,000.0,348.3,010305,007.9,W*71
$GPGGA,183553,4124.7267,N,08152.2437,W,2,04,12.0,268.6,M,-34.0,M,,*46
$GPGSA,A,2,,04,,,07,10,,,,,,35,12.8,12.0,1.0*3E
$GPGSV,3,2,12,07,19,126,33,10,45,198,45,13,20,067,35,23,09,040,00*7B
$PGRME,13.4,M,25.5,M,28.8,M*18
$PGRMM,WGS 84*06
$GPRMC,183554,A,4124.7269,N,08152.2438,W,000.0,348.3,010305,007.9,W*77
$GPGGA,183554,4124.7269,N,08152.2438,W,2,04,14.8,268.6,M,-34.0,M,,*4E
$GPGSA,A,2,,04,,,07,10,,,,,,35,15.5,14.8,1.0*3A
$GPGSV,3,3,12,24,17,068,00,30,29,303,00,33,09,106,41,35,34,141,43*75
$PGRME,13.4,M,25.5,M,28.8,M*18
$PGRMM,WGS 84*06
$GPRMC,183555,A,4124.7271,N,08152.2438,W,000.0,348.3,010305,007.9,W*7F
$GPGGA,183555,4124.7271,N,08152.2438,W,2,00,14.8,268.6,M,-34.0,M,,*42
$GPGSA,A,2,,,,,,,,,,,,,15.5,14.8,1.0*3E
$GPGSV,3,1,12,02,72,320,38,04,49,057,00,05,43,262,00,06,03,307,00*7B
$PGRME,13.4,M,25.5,M,28.8,M*18
$PGRMM,WGS 84*06
$GPRMC,183556,A,4124.7273,N,08152.2439,W,000.0,348.3,010305,007.9,W*7F
$GPGGA,183556,4124.7273,N,08152.2439,W,2,00,14.8,268.6,M,-34.0,M,,*42
$GPGSA,A,2,,,,,,,,,,,,,15.5,14.8,1.0*3E
$GPGSV,3,2,12,07,19,126,35,10,45,198,44,13,20,067,35,23,09,040,00*7C
$PGRME,13.4,M,25.5,M,28.8,M*18
$PGRMM,WGS 84*06
$GPRMC,183557,A,4124.7275,N,08152.2439,W,000.0,348.3,010305,007.9,W*78
$GPGGA,183557,4124.7275,N,08152.2439,W,2,00,17.1,268.6,M,-34.0,M,,*4F
$GPGSA,A,2,,,,,,,,,,,,,17.7,17.1,1.0*34
$GPGSV,3,3,12,24,17,068,00,30,29,303,00,33,09,106,41,35,34,141,43*75
$PGRME,13.4,M,25.5,M,28.8,M*18
$PGRMM,WGS 84*06
$GPRMC,183558,A,4124.7276,N,08152.2440,W,000.0,348.3,010305,007.9,W*7A
$GPGGA,183558,4124.7276,N,08152.2440,W,2,00,19.0,268.6,M,-34.0,M,,*42
$GPGSA,A,2,,,,,,,,,,,,,19.4,19.0,1.0*36
$GPGSV,3,1,12,02,72,320,38,04,49,057,00,05,43,262,00,06,03,307,00*7B
$PGRME,13.4,M,25.5,M,28.8,M*18
$PGRMM,WGS 84*06
$GPRMC,183559,A,4124.7278,N,08152.2440,W,000.0,348.3,010305,007.9,W*75
$GPGGA,183559,4124.7278,N,08152.2440,W,2,00,20.5,268.6,M,-34.0,M,,*42
$GPGSA,A,2,,,,,,,,,,,,,20.9,20.5,1.0*3E
$GPGSV,3,2,12,07,19,126,35,10,45,198,45,13,20,067,35,23,09,040,00*7D
$PGRME,13.4,M,25.5,M,28.8,M*18
$PGRMM,WGS 84*06
$GPRMC,183600,A,4124.7279,N,08152.2441,W,000.0,348.3,010305,007.9,W*7A
$GPGGA,183600,4124.7279,N,08152.2441,W,2,00,20.5,268.6,M,-34.0,M,,*4D
$GPGSA,A,2,,,,,,,,,,,,,20.9,20.5,1.0*3E
$GPGSV,3,3,12,24,17,068,00,30,29,303,00,33,09,106,41,35,34,141,43*75
$PGRME,13.4,M,25.5,M,28.8,M*18
$PGRMM,WGS 84*06
$GPRMC,183601,A,4124.7281,N,08152.2441,W,000.0,348.3,010305,007.9,W*7C
$GPGGA,183601,4124.7281,N,08152.2441,W,2,00,20.5,268.6,M,-34.0,M,,*4B
$GPGSA,A,2,,,,,,,,,,,,,20.9,20.5,1.0*3E
$GPGSV,3,1,12,02,72,320,37,04,49,057,00,05,43,262,00,06,03,307,00*74
$PGRME,13.4,M,25.5,M,28.8,M*18
$PGRMM,WGS 84*06
$GPRMC,183602,A,4124.7282,N,08152.2442,W,000.0,348.3,010305,007.9,W*7F
$GPGGA,183602,4124.7282,N,08152.2442,W,2,00,20.5,268.6,M,-34.0,M,,*48
$GPGSA,A,2,,,,,,,,,,,,,20.9,20.5,1.0*3E
$GPGSV,3,2,12,07,19,126,35,10,45,198,45,13,20,067,37,23,09,040,00*7F
$PGRME,13.4,M,25.5,M,28.8,M*18
$PGRMM,WGS 84*06
$GPRMC,183603,A,4124.7284,N,08152.2443,W,000.0,348.3,010305,007.9,W*79
$GPGGA,183603,4124.7284,N,08152.2443,W,2,00,21.7,268.6,M,-34.0,M,,*4D
$GPGSA,A,2,,,,,,,,,,,,,22.0,21.7,1.0*36
$GPGSV,3,3,12,24,17,068,00,30,29,303,00,33,09,106,41,35,34,141,43*75
$PGRME,13.4,M,25.5,M,28.8,M*18
$PGRMM,WGS 84*06
$GPRMC,183604,A,4124.7285,N,08152.2443,W,000.0,348.3,010305,007.9,W*7F
$GPGGA,183604,4124.7285,N,08152.2443,W,2,00,22.7,268.6,M,-34.0,M,,*48
$GPGSA,A,2,,,,,,,,,,,,,23.0,22.7,1.0*34
$GPGSV,3,1,12,02,72,320,37,04,49,057,00,05,43,262,32,06,03,307,00*75
$PGRME,13.4,M,25.5,M,28.8,M*18
$PGRMM,WGS 84*06
$GPRMC,183605,A,4124.7287,N,08152.2444,W,000.0,348.3,010305,007.9,W*7B
$GPGGA,183605,4124.7287,N,08152.2444,W,2,00,23.6,268.6,M,-34.0,M,,*4C
$GPGSA,A,2,,,,,,,,,,,,,23.8,23.6,1.0*3C
$GPGSV,3,2,12,07,19,126,34,10,45,198,45,13,20,066,38,23,09,040,00*70
$PGRME,13.4,M,25.5,M,28.8,M*18
$PGRMM,WGS 84*06
$GPRMC,183606,A,4124.7288,N,08152.2444,W,000.0,348.3,010305,007.9,W*77
$GPGGA,183606,4124.7288,N,08152.2444,W,2,00,23.6,268.6,M,-34.0,M,,*40
$GPGSA,A,2,,,,,,,,,,,,,23.8,23.6,1.0*3C
$GPGSV,3,3,12,24,17,068,00,30,29,303,00,33,09,106,41,35,34,141,43*75
$PGRME,13.4,M,25.5,M,28.8,M*18
$PGRMM,WGS 84*06
$GPRMC,183607,A,4124.7289,N,08152.2445,W,000.0,348.3,010305,007.9,W*76
$GPGGA,183607,4124.7289,N,08152.2445,W,2,00,24.2,268.6,M,-34.0,M,,*42
$GPGSA,A,2,,,,,,,,,,,,,24.4,24.2,1.0*34
$GPGSV,3,1,12,02,72,320,37,04,49,057,33,05,43,262,33,06,03,307,00*74
$PGRME,13.4,M,25.5,M,28.8,M*18
$PGRMM,WGS 84*06
$GPRMC,183608,A,4124.7291,N,08152.2446,W,000.0,348.3,010305,007.9,W*73
$GPGGA,183608,4124.7291,N,08152.2446,W,2,04,4.2,268.4,M,-34.0,M,,*73
$GPGSA,A,2,,04,,,07,10,,,,,,35,9.0,4.2,1.7*3E
$GPGSV,3,2,12,07,19,126,35,10,45,198,45,13,20,066,38,23,09,040,00*71
$PGRME,13.4,M,25.4,M,28.7,M*16
$PGRMM,WGS 84*06
$GPRMC,183609,A,4124.7292,N,08152.2447,W,000.0,348.3,010305,007.9,W*70
$GPGGA,183609,4124.7292,N,08152.2447,W,2,04,4.2,267.7,M,-34.0,M,,*7C
$GPGSA,A,2,,04,,,07,10,,,,,,35,9.0,4.2,1.7*3E
$GPGSV,3,3,12,24,17,068,00,30,29,303,00,33,09,106,41,35,34,141,44*72
$PGRME,13.4,M,25.4,M,28.7,M*16
$PGRMM,WGS 84*06
$GPRMC,183610,A,4124.7293,N,08152.2446,W,000.0,348.3,010305,007.9,W*78
$GPGGA,183610,4124.7293,N,08152.2446,W,1,04,4.2,265.8,M,-34.0,M,,*7A
$GPGSA,A,3,,04,,,07,10,,,,,,35,9.0,4.2,2.3*38
$GPGSV,3,1,12,02,72,320,37,04,49,057,31,05,43,262,33,06,03,307,00*76
$PGRME,13.4,M,25.4,M,28.7,M*16
$PGRMM,WGS 84*06
$GPRMC,183611,A,4124.7294,N,08152.2447,W,000.0,348.3,010305,007.9,W*7F
$GPGGA,183611,4124.7294,N,08152.2447,W,1,04,4.2,265.5,M,-34.0,M,,*70
$GPGSA,A,3,,04,,,07,10,,,,,,35,9.0,4.2,2.3*38
$GPGSV,3,2,12,07,19,126,35,10,45,198,45,13,20,066,38,23,09,040,00*71
$PGRME,13.4,M,25.4,M,28.7,M*16
$PGRMM,WGS 84*06
$GPRMC,183612,A,4124.7295,N,08152.2448,W,000.0,348.3,010305,007.9,W*72
$GPGGA,183612,4124.7295,N,08152.2448,W,1,04,8.6,265.4,M,-34.0,M,,*74
$GPGSA,A,3,,04,,,07,10,,,,,,35,12.5,8.6,1.0*0F
$GPGSV,3,3,12,24,17,068,00,30,29,303,00,33,09,106,41,35,34,141,43*75
$PGRME,13.4,M,25.4,M,28.7,M*16
$PGRMM,WGS 84*06
$GPRMC,183613,A,4124.7296,N,08152.2449,W,000.0,348.3,010305,007.9,W*71
$GPGGA,183613,4124.7296,N,08152.2449,W,1,04,2.5,265.2,M,-34.0,M,,*78
$GPGSA,A,3,,04,,,07,10,,,,,,35,2.7,2.5,1.0*35
$GPGSV,3,1,12,02,72,320,36,04,49,057,31,05,43,262,34,06,03,307,00*70
$PGRME,10.1,M,25.4,M,27.3,M*1B
$PGRMM,WGS 84*06
$GPRMC,183614,A,4124.7298,N,08152.2450,W,000.0,348.3,010305,007.9,W*70
$GPGGA,183614,4124.7298,N,08152.2450,W,1,04,2.5,265.1,M,-34.0,M,,*7A
$GPGSA,A,3,,04,,,07,10,,,,,,35,2.7,2.5,1.0*35
$GPGSV,3,2,12,07,19,126,00,10,45,198,46,13,20,066,37,23,09,040,00*7B
$PGRME,10.1,M,25.4,M,27.3,M*1B
$PGRMM,WGS 84*06
$GPRMC,183615,A,4124.7299,N,08152.2450,W,000.0,348.3,010305,007.9,W*70
$GPGGA,183615,4124.7299,N,08152.2450,W,1,04,2.5,265.1,M,-34.0,M,,*7A
$GPGSA,A,3,,04,,,07,10,,,,,,35,2.7,2.5,1.0*35
$GPGSV,3,3,12,24,17,068,35,30,29,303,00,33,09,106,41,35,34,141,43*73
$PGRME,10.1,M,25.4,M,27.3,M*1B
$PGRMM,WGS 84*06
$GPRMC,183616,A,4124.7300,N,08152.2451,W,000.0,348.3,010305,007.9,W*73
$GPGGA,183616,4124.7300,N,08152.2451,W,1,04,2.5,265.0,M,-34.0,M,,*78
$GPGSA,A,3,,04,,,07,10,,,,,,35,2.7,2.5,1.0*35
$GPGSV,3,1,12,02,72,320,36,04,49,057,31,05,43,262,33,06,03,307,00*77
$PGRME,10.1,M,25.4,M,27.3,M*1B
$PGRMM,WGS 84*06
$GPRMC,183617,A,4124.7301,N,08152.2451,W,000.0,348.3,010305,007.9,W*73
$GPGGA,183617,4124.7301,N,08152.2451,W,1,04,2.5,265.0,M,-34.0,M,,*78
$GPGSA,A,3,,04,,,07,10,,,,,,35,2.7,2.5,1.0*35
$GPGSV,3,2,12,07,19,126,00,10,45,198,46,13,20,066,00,23,09,040,00*7F
$PGRME,10.1,M,25.4,M,27.3,M*1B
$PGRMM,WGS 84*06
$GPRMC,183618,A,4124.7302,N,08152.2452,W,000.0,348.3,010305,007.9,W*7C
$GPGGA,183618,4124.7302,N,08152.2452,W,1,04,2.5,264.9,M,-34.0,M,,*7F
$GPGSA,A,3,,04,,,07,10,,,,,,35,2.7,2.5,1.0*35
$GPGSV,3,3,12,24,17,068,35,30,29,303,00,33,09,106,41,35,34,141,43*73
$PGRME,10.1,M,25.4,M,27.3,M*1B
$PGRMM,WGS 84*06
$GPRMC,183619,A,4124.7303,N,08152.2452,W,000.0,348.3,010305,007.9,W*7C
$GPGGA,183619,4124.7303,N,08152.2452,W,1,03,2.5,264.9,M,-34.0,M,,*78
$GPGSA,A,3,,04,,,,10,,,,,,35,2.7,2.5,1.0*32
$GPGSV,3,1,12,02,72,320,36,04,49,057,31,05,43,262,32,06,03,307,00*76
$PGRME,10.1,M,25.4,M,27.3,M*1B
$PGRMM,WGS 84*06
$GPRMC,183620,A,4124.7304,N,08152.2453,W,000.0,348.3,010305,007.9,W*70
$GPGGA,183620,4124.7304,N,08152.2453,W,1,05,3.7,262.7,M,-34.0,M,,*79
$GPGSA,A,3,,04,,,07,10,,,24,,,35,5.6,3.7,1.8*3E
$GPGSV,3,2,12,07,19,126,34,10,45,198,46,13,20,066,00,23,09,040,00*78
$PGRME,10.3,M,25.7,M,27.6,M*1F
$PGRMM,WGS 84*06
$GPRMC,183621,A,4124.7305,N,08152.2454,W,000.0,348.3,010305,007.9,W*77
$GPGGA,183621,4124.7305,N,08152.2454,W,1,05,2.8,261.1,M,-34.0,M,,*75
$GPGSA,A,3,,04,,,07,10,,,24,,,35,3.0,2.8,1.0*38
$GPGSV,3,3,12,24,17,068,36,30,29,303,00,33,09,106,41,35,34,141,43*70
$PGRME,8.6,M,10.5,M,13.6,M*20
$PGRMM,WGS 84*06
$GPRMC,183622,A,4124.7306,N,08152.2455,W,000.0,348.3,010305,007.9,W*76
$GPGGA,183622,4124.7306,N,08152.2455,W,1,05,2.8,259.2,M,-34.0,M,,*7C
$GPGSA,A,3,,04,,,07,10,,,24,,,35,3.2,2.8,1.3*39
$GPGSV,3,1,12,02,72,320,37,04,49,057,34,05,43,262,00,06,03,307,00*73
$PGRME,8.6,M,10.5,M,13.6,M*20
$PGRMM,WGS 84*06
$GPRMC,183623,A,4124.7307,N,08152.2456,W,000.0,348.3,010305,007.9,W*75
$GPGGA,183623,4124.7307,N,08152.2456,W,1,05,4.2,258.3,M,-34.0,M,,*73
$GPGSA,A,3,,04,,,07,10,,,24,,,35,5.9,4.2,1.7*3C
$GPGSV,3,2,12,07,19,126,35,10,45,198,46,13,20,066,00,23,09,040,00*79
$PGRME,9.1,M,12.0,M,15.1,M*20
$PGRMM,WGS 84*06
$GPRMC,183624,A,4124.7308,N,08152.2456,W,000.0,348.3,010305,007.9,W*7D
$GPGGA,183624,4124.7308,N,08152.2456,W,1,05,4.2,256.7,M,-34.0,M,,*71
$GPGSA,A,3,,04,,,07,10,,,24,,,35,6.2,4.2,2.3*33
$GPGSV,3,3,12,24,17,068,34,30,29,303,00,33,09,106,40,35,34,141,43*73
$PGRME,7.2,M,10.5,M,12.7,M*2B
$PGRMM,WGS 84*06
$GPRMC,183625,A,4124.7309,N,08152.2457,W,000.0,348.3,010305,007.9,W*7C
$GPGGA,183625,4124.7309,N,08152.2457,W,1,05,4.2,256.5,M,-34.0,M,,*72
$GPGSA,A,3,,04,,,07,10,,,24,,,35,6.2,4.2,2.3*33
$GPGSV,3,1,12,02,72,320,36,04,49,057,34,05,43,262,00,06,03,307,00*72
$PGRME,7.8,M,12.0,M,14.3,M*24
$PGRMM,WGS 84*06
$GPRMC,183626,A,4124.7310,N,08152.2458,W,000.0,348.3,010305,007.9,W*78
$GPGGA,183626,4124.7310,N,08152.2458,W,1,05,3.7,256.5,M,-34.0,M,,*74
$GPGSA,A,3,,04,,,07,10,,,24,,,35,8.5,3.7,1.8*30
$GPGSV,3,2,12,07,19,126,34,10,45,198,45,13,20,066,33,23,09,040,00*7B
$PGRME,8.2,M,13.6,M,15.9,M*2D
$PGRMM,WGS 84*06
$GPRMC,183627,A,4124.7311,N,08152.2458,W,000.0,348.3,010305,007.9,W*78
$GPGGA,183627,4124.7311,N,08152.2458,W,1,05,2.8,256.6,M,-34.0,M,,*79
$GPGSA,A,3,,04,,,07,10,,,24,,,35,3.0,2.8,1.0*38
$GPGSV,3,3,12,24,17,068,32,30,29,303,00,33,09,106,40,35,34,141,43*75
$PGRME,8.3,M,13.6,M,16.0,M*26
$PGRMM,WGS 84*06
$GPRMC,183628,A,4124.7312,N,08152.2460,W,000.0,348.3,010305,007.9,W*7F
$GPGGA,183628,4124.7312,N,08152.2460,W,1,05,2.8,256.7,M,-34.0,M,,*7F
$GPGSA,A,3,,04,,,07,10,,,24,,,35,3.0,2.8,1.0*38
$GPGSV,3,1,12,02,72,320,36,04,49,057,00,05,43,262,00,06,03,307,00*75
$PGRME,8.5,M,13.6,M,16.1,M*21
$PGRMM,WGS 84*06
$GPRMC,183629,A,4124.7313,N,08152.2460,W,000.0,348.3,010305,007.9,W*7F
$GPGGA,183629,4124.7313,N,08152.2460,W,1,05,2.8,256.7,M,-34.0,M,,*7F
$GPGSA,A,3,,04,,,07,10,,,24,,,35,3.0,2.8,1.0*38
$GPGSV,3,2,12,07,19,126,00,10,45,198,45,13,20,066,32,23,09,040,00*7D
$PGRME,8.6,M,13.6,M,16.1,M*22
$PGRMM,WGS 84*06
$GPRMC,183630,A,4124.7314,N,08152.2461,W,000.0,348.3,010305,007.9,W*71
$GPGGA,183630,4124.7314,N,08152.2461,W,1,05,2.8,256.8,M,-34.0,M,,*7E
$GPGSA,A,3,,04,,,07,10,,,24,,,35,3.0,2.8,1.0*38
$GPGSV,3,3,12,24,17,068,00,30,29,303,00,33,09,106,40,35,34,141,44*73
$PGRME,8.7,M,13.6,M,16.2,M*20
$PGRMM,WGS 84*06
$GPRMC,183631,A,4124.7315,N,08152.2462,W,000.0,348.3,010305,007.9,W*72
$GPGGA,183631,4124.7315,N,08152.2462,W,1,05,2.8,256.8,M,-34.0,M,,*7D
$GPGSA,A,3,,04,,,07,10,,,24,,,35,3.0,2.8,1.0*38
$GPGSV,3,1,12,02,72,320,34,04,49,057,00,05,43,262,00,06,03,307,00*77
$PGRME,8.7,M,13.6,M,16.2,M*20
$PGRMM,WGS 84*06
$GPRMC,183632,A,4124.7316,N,08152.2463,W,000.0,348.3,010305,007.9,W*73
$GPGGA,183632,4124.7316,N,08152.2463,W,1,05,2.8,256.8,M,-34.0,M,,*7C
$GPGSA,A,3,,04,,,07,10,,,24,,,35,3.0,2.8,1.0*38
$GPGSV,3,2,12,07,19,126,00,10,45,198,45,13,20,066,00,23,09,040,00*7C
$PGRME,8.7,M,13.6,M,16.2,M*20
$PGRMM,WGS 84*06
$GPRMC,183633,A,4124.7317,N,08152.2463,W,000.0,348.3,010305,007.9,W*73
$GPGGA,183633,4124.7317,N,08152.2463,W,1,05,2.8,256.8,M,-34.0,M,,*7C
$GPGSA,A,3,,04,,,07,10,,,24,,,35,3.0,2.8,1.0*38
$GPGSV,3,3,12,24,17,068,00,30,29,303,00,33,09,106,40,35,34,141,43*74
$PGRME,8.7,M,13.6,M,16.2,M*20
$PGRMM,WGS 84*06
$GPRMC,183634,A,4124.7318,N,08152.2464,W,000.0,348.3,010305,007.9,W*7C
$GPGGA,183634,4124.7318,N,08152.2464,W,1,04,2.8,256.9,M,-34.0,M,,*73
$GPGSA,A,3,,,,,07,10,,,24,,,35,3.0,2.8,1.0*3C
$GPGSV,3,1,12,02,72,320,34,04,49,057,00,05,43,262,00,06,03,307,00*77
$PGRME,8.7,M,13.6,M,16.2,M*20
$PGRMM,WGS 84*06
$GPRMC,183635,A,4124.7319,N,08152.2465,W,000.0,348.3,010305,007.9,W*7D
$GPGGA,183635,4124.7319,N,08152.2465,W,1,03,2.8,256.9,M,-34.0,M,,*75
$GPGSA,A,3,,,,,,10,,,24,,,35,3.0,2.8,1.0*3B
$GPGSV,3,2,12,07,19,126,00,10,45,198,45,13,20,066,00,23,09,040,00*7C
$PGRME,8.7,M,13.6,M,16.2,M*20
$PGRMM,WGS 84*06
$GPRMC,183636,A,4124.7319,N,08152.2466,W,000.0,348.3,010305,007.9,W*7D
$GPGGA,183636,4124.7319,N,08152.2466,W,1,03,2.8,256.9,M,-34.0,M,,*75
$GPGSA,A,3,,,,,,10,,,24,,,35,3.0,2.8,1.0*3B
$GPGSV,3,3,12,24,17,068,00,30,29,303,00,33,09,106,40,35,34,141,44*73
$PGRME,8.7,M,13.6,M,16.2,M*20
$PGRMM,WGS 84*06
$GPRMC,183637,A,4124.7320,N,08152.2466,W,000.0,348.3,010305,007.9,W*76
$GPGGA,183637,4124.7320,N,08152.2466,W,1,03,7.5,256.9,M,-34.0,M,,*76
$GPGSA,A,3,,,,,,10,,,24,,,35,7.6,7.5,1.0*31
$GPGSV,3,1,12,02,72,320,33,04,49,057,00,05,43,262,00,06,03,307,00*70
$PGRME,8.7,M,13.6,M,16.2,M*20
$PGRMM,WGS 84*06
$GPRMC,183638,A,4124.7321,N,08152.2467,W,000.0,348.3,010305,007.9,W*79
$GPGGA,183638,4124.7321,N,08152.2467,W,1,03,11.3,256.9,M,-34.0,M,,*48
$GPGSA,A,3,,,,,,10,,,24,,,35,11.4,11.3,1.0*35
$GPGSV,3,2,12,07,19,126,33,10,45,198,45,13,20,066,00,23,09,040,00*7C
$PGRME,8.7,M,13.6,M,16.2,M*20
$PGRMM,WGS 84*06
$GPRMC,183639,A,4124.7322,N,08152.2468,W,000.0,348.3,010305,007.9,W*74
$GPGGA,183639,4124.7322,N,08152.2468,W,1,00,14.4,256.9,M,-34.0,M,,*44
$GPGSA,A,3,,,,,,,,,,,,,14.5,14.4,1.0*32
$GPGSV,3,3,12,24,17,068,00,30,29,303,00,33,09,106,40,35,34,141,43*74
$PGRME,8.7,M,13.6,M,16.2,M*20
$PGRMM,WGS 84*06
$GPRMC,183640,A,4124.7323,N,08152.2468,W,000.0,348.3,010305,007.9,W*7B
$GPGGA,183640,4124.7323,N,08152.2468,W,1,00,16.9,256.9,M,-34.0,M,,*44
$GPGSA,A,3,,,,,,,,,,,,,17.0,16.9,1.0*3B
$GPGSV,3,1,12,02,72,320,00,04,49,057,00,05,43,262,00,06,03,307,00*70
$PGRME,8.7,M,13.6,M,16.2,M*20
$PGRMM,WGS 84*06
$GPRMC,183641,A,4124.7324,N,08152.2469,W,000.0,348.3,010305,007.9,W*7C
$GPGGA,183641,4124.7324,N,08152.2469,W,1,00,19.0,256.9,M,-34.0,M,,*45
$GPGSA,A,3,,,,,,,,,,,,,19.0,19.0,1.0*33
$GPGSV,3,2,12,07,19,126,35,10,45,198,45,13,20,066,00,23,09,039,00*74
$PGRME,8.7,M,13.6,M,16.2,M*20
$PGRMM,WGS 84*06
$GPRMC,183642,A,4124.7324,N,08152.2469,W,000.0,348.3,010305,007.9,W*7F
$GPGGA,183642,4124.7324,N,08152.2469,W,1,00,20.6,256.9,M,-34.0,M,,*4A
$GPGSA,A,3,,,,,,,,,,,,,20.7,20.6,1.0*32
$GPGSV,3,3,12,24,17,068,00,30,29,303,00,33,09,106,41,35,34,141,44*72
$PGRME,8.7,M,13.6,M,16.2,M*20
$PGRMM,WGS 84*06
$GPRMC,183643,A,4124.7325,N,08152.2470,W,000.0,348.3,010305,007.9,W*77
$GPGGA,183643,4124.7325,N,08152.2470,W,1,00,22.0,256.9,M,-34.0,M,,*46
$GPGSA,A,3,,,,,,,,,,,,,22.0,22.0,1.0*33
$GPGSV,3,1,12,02,72,320,00,04,49,057,00,05,43,262,00,06,03,307,00*70
$PGRME,8.7,M,13.6,M,16.2,M*20
$PGRMM,WGS 84*06
$GPRMC,183644,A,4124.7326,N,08152.2470,W,000.0,348.3,010305,007.9,W*73
$GPGGA,183644,4124.7326,N,08152.2470,W,1,00,22.0,256.9,M,-34.0,M,,*42
$GPGSA,A,3,,,,,,,,,,,,,22.0,22.0,1.0*33
$GPGSV,3,2,12,07,19,126,00,10,45,198,45,13,20,066,00,23,09,039,00*72
$PGRME,8.7,M,13.6,M,16.2,M*20
$PGRMM,WGS 84*06
$GPRMC,183645,A,4124.7327,N,08152.2471,W,000.0,348.3,010305,007.9,W*72
$GPGGA,183645,4124.7327,N,08152.2471,W,1,00,22.0,256.9,M,-34.0,M,,*43
$GPGSA,A,3,,,,,,,,,,,,,22.0,22.0,1.0*33
$GPGSV,3,3,12,24,16,068,00,30,29,303,00,33,09,106,41,35,34,141,44*73
$PGRME,8.7,M,13.6,M,16.2,M*20
$PGRMM,WGS 84*06
$GPRMC,183646,A,4124.7327,N,08152.2472,W,000.0,348.3,010305,007.9,W*72
$GPGGA,183646,4124.7327,N,08152.2472,W,1,00,22.0,256.9,M,-34.0,M,,*43
$GPGSA,A,3,,,,,,,,,,,,,22.0,22.0,1.0*33
$GPGSV,3,1,12,02,72,320,00,04,49,057,00,05,43,262,00,06,03,307,00*70
$PGRME,8.7,M,13.6,M,16.2,M*20
$PGRMM,WGS 84*06
$GPRMC,183647,A,4124.7328,N,08152.2472,W,000.0,348.3,010305,007.9,W*7C
$GPGGA,183647,4124.7328,N,08152.2472,W,1,00,22.0,256.9,M,-34.0,M,,*4D
$GPGSA,A,3,,,,,,,,,,,,,22.0,22.0,1.0*33
$GPGSV,3,2,12,07,19,126,00,10,45,198,45,13,20,066,00,23,09,039,00*72
$PGRME,8.7,M,13.6,M,16.2,M*20
$PGRMM,WGS 84*06
$GPRMC,183648,A,4124.7329,N,08152.2473,W,000.0,348.3,010305,007.9,W*73
$GPGGA,183648,4124.7329,N,08152.2473,W,1,00,22.0,256.9,M,-34.0,M,,*42
$GPGSA,A,3,,,,,,,,,,,,,22.0,22.0,1.0*33
$GPGSV,3,3,12,24,16,068,00,30,29,303,00,33,09,106,41,35,34,141,44*73
$PGRME,8.7,M,13.6,M,16.2,M*20
$PGRMM,WGS 84*06
$GPRMC,183649,A,4124.7329,N,08152.2473,W,000.0,348.3,010305,007.9,W*72
$GPGGA,183649,4124.7329,N,08152.2473,W,1,00,22.0,256.9,M,-34.0,M,,*43
$GPGSA,A,3,,,,,,,,,,,,,22.0,22.0,1.0*33
$GPGSV,3,1,12,02,72,320,00,04,49,057,00,05,43,262,00,06,03,307,00*70
$PGRME,8.7,M,13.6,M,16.2,M*20
$PGRMM,WGS 84*06
$GPRMC,183650,A,4124.7330,N,08152.2474,W,000.0,348.3,010305,007.9,W*75
$GPGGA,183650,4124.7330,N,08152.2474,W,1,00,22.0,256.9,M,-34.0,M,,*44
$GPGSA,A,3,,,,,,,,,,,,,22.0,22.0,1.0*33
$GPGSV,3,2,12,07,19,126,00,10,45,198,44,13,20,066,00,23,09,039,00*73
$PGRME,8.7,M,13.6,M,16.2,M*20
$PGRMM,WGS 84*06
$GPRMC,183651,A,4124.7331,N,08152.2474,W,000.0,348.3,010305,007.9,W*75
$GPGGA,183651,4124.7331,N,08152.2474,W,1,00,22.0,256.9,M,-34.0,M,,*44
$GPGSA,A,3,,,,,,,,,,,,,22.0,22.0,1.0*33
$GPGSV,3,3,12,24,16,068,00,30,29,303,00,33,09,106,41,35,34,141,43*74
$PGRME,8.7,M,13.6,M,16.2,M*20
$PGRMM,WGS 84*06
$GPRMC,183652,A,4124.7331,N,08152.2474,W,000.0,348.3,010305,007.9,W*76
$GPGGA,183652,4124.7331,N,08152.2474,W,1,00,22.0,256.9,M,-34.0,M,,*47
$GPGSA,A,3,,,,,,,,,,,,,22.0,22.0,1.0*33
$GPGSV,3,1,12,02,72,320,00,04,49,057,00,05,43,262,00,06,03,307,00*70
$PGRME,8.7,M,13.6,M,16.2,M*20
$PGRMM,WGS 84*06
$GPRMC,183653,A,4124.7332,N,08152.2475,W,000.0,348.3,010305,007.9,W*75
$GPGGA,183653,4124.7332,N,08152.2475,W,1,00,22.0,256.9,M,-34.0,M,,*44
$GPGSA,A,3,,,,,,,,,,,,,22.0,22.0,1.0*33
$GPGSV,3,2,12,07,19,126,00,10,45,198,44,13,20,066,00,23,09,039,00*73
$PGRME,8.7,M,13.6,M,16.2,M*20
$PGRMM,WGS 84*06
$GPRMC,183654,A,4124.7332,N,08152.2475,W,000.0,348.3,010305,007.9,W*72
$GPGGA,183654,4124.7332,N,08152.2475,W,1,00,22.0,256.9,M,-34.0,M,,*43
$GPGSA,A,3,,,,,,,,,,,,,22.0,22.0,1.0*33
$GPGSV,3,3,12,24,16,068,00,30,29,303,00,33,09,106,41,35,34,141,44*73
$PGRME,8.7,M,13.6,M,16.2,M*20
$PGRMM,WGS 84*06
$GPRMC,183655,A,4124.7333,N,08152.2476,W,000.0,348.3,010305,007.9,W*71
$GPGGA,183655,4124.7333,N,08152.2476,W,1,00,22.0,256.9,M,-34.0,M,,*40
$GPGSA,A,3,,,,,,,,,,,,,22.0,22.0,1.0*33
$GPGSV,3,1,12,02,72,320,00,04,49,057,00,05,43,262,00,06,03,307,00*70
$PGRME,8.7,M,13.6,M,16.2,M*20
$PGRMM,WGS 84*06
$GPRMC,183656,A,4124.7334,N,08152.2476,W,000.0,348.3,010305,007.9,W*75
$GPGGA,183656,4124.7334,N,08152.2476,W,1,00,22.0,256.9,M,-34.0,M,,*44
$GPGSA,A,3,,,,,,,,,,,,,22.0,22.0,1.0*33
$GPGSV,3,2,12,07,19,126,00,10,45,198,44,13,20,066,00,23,09,039,00*73
$PGRME,8.7,M,13.6,M,16.2,M*20
$PGRMM,WGS 84*06
$GPRMC,183657,A,4124.7334,N,08152.2477,W,000.0,348.3,010305,007.9,W*75
$GPGGA,183657,4124.7334,N,08152.2477,W,1,00,22.0,256.9,M,-34.0,M,,*44
$GPGSA,A,3,,,,,,,,,,,,,22.0,22.0,1.0*33
$GPGSV,3,3,12,24,16,068,00,30,29,303,00,33,09,106,41,35,34,141,43*74
$PGRME,8.7,M,13.6,M,16.2,M*20
$PGRMM,WGS 84*06
$GPRMC,183658,A,4124.7335,N,08152.2477,W,000.0,348.3,010305,007.9,W*7B
$GPGGA,183658,4124.7335,N,08152.2477,W,1,00,22.0,256.9,M,-34.0,M,,*4A
$GPGSA,A,3,,,,,,,,,,,,,22.0,22.0,1.0*33
$GPGSV,3,1,12,02,72,320,00,04,49,057,00,05,43,262,35,06,03,307,00*76
$PGRME,8.7,M,13.6,M,16.2,M*20
$PGRMM,WGS 84*06
$GPRMC,183659,A,4124.7335,N,08152.2477,W,000.0,348.3,010305,007.9,W*7A
$GPGGA,183659,4124.7335,N,08152.2477,W,1,00,22.0,256.9,M,-34.0,M,,*4B
$GPGSA,A,3,,,,,,,,,,,,,22.0,22.0,1.0*33
$GPGSV,3,2,12,07,19,126,00,10,45,198,44,13,20,066,00,23,09,039,00*73
$PGRME,8.7,M,13.6,M,16.2,M*20
$PGRMM,WGS 84*06
$GPRMC,183700,A,4124.7336,N,08152.2478,W,000.0,348.3,010305,007.9,W*7B
$GPGGA,183700,4124.7336,N,08152.2478,W,1,00,22.0,256.9,M,-34.0,M,,*4A
$GPGSA,A,3,,,,,,,,,,,,,22.0,22.0,1.0*33
$GPGSV,3,3,12,24,16,068,00,30,29,303,00,33,09,106,41,35,34,141,43*74
$PGRME,8.7,M,13.6,M,16.2,M*20
$PGRMM,WGS 84*06
$GPRMC,183659,V,4124.7387,N,08152.2515,W,,,010305,007.9,W*6D
$GPGGA,183659,4124.7387,N,08152.2515,W,0,00,,,M,,M,,*4A
$GPGSA,A,1,,,,,,,,,,,,,,,*1E
$GPGSV,3,1,12,02,72,320,00,04,49,057,00,05,43,262,35,06,03,307,00*76
$PGRME,,M,,M,,M*00
$PGRMM,WGS 84*06
$GPRMC,183700,V,4124.7387,N,08152.2515,W,,,010305,007.9,W*60
$GPGGA,183700,4124.7387,N,08152.2515,W,0,00,,,M,,M,,*47
$GPGSA,A,1,,,,,,,,,,,,,,,*1E
$GPGSV,3,2,12,07,19,126,00,10,45,198,43,13,20,066,00,23,09,039,00*74
$PGRME,,M,,M,,M*00
$PGRMM,WGS 84*06
$GPRMC,183701,V,4124.7387,N,08152.2515,W,,,010305,007.9,W*61
$GPGGA,183701,4124.7387,N,08152.2515,W,0,00,,,M,,M,,*46
$GPGSA,A,1,,,,,,,,,,,,,,,*1E
$GPGSV,3,3,12,24,16,068,00,30,29,303,00,33,09,106,41,35,34,141,43*74
$PGRME,,M,,M,,M*00
$PGRMM,WGS 84*06
$GPRMC,183702,V,4124.7387,N,08152.2515,W,,,010305,007.9,W*62
$GPGGA,183702,4124.7387,N,08152.2515,W,0,00,,,M,,M,,*45
$GPGSA,A,1,,,,,,,,,,,,,,,*1E
$GPGSV,3,1,12,02,72,320,00,04,49,057,00,05,43,262,34,06,03,307,00*77
$PGRME,,M,,M,,M*00
$PGRMM,WGS 84*06
$GPRMC,183703,V,4124.7387,N,08152.2515,W,,,010305,007.9,W*63
$GPGGA,183703,4124.7387,N,08152.2515,W,0,00,,,M,,M,,*44
$GPGSA,A,1,,,,,,,,,,,,,,,*1E
$GPGSV,3,2,12,07,19,126,00,10,45,198,43,13,20,066,00,23,09,039,00*74
$PGRME,,M,,M,,M*00
$PGRMM,WGS 84*06
$GPRMC,183704,V,4124.7387,N,08152.2515,W,,,010305,007.9,W*64
$GPGGA,183704,4124.7387,N,08152.2515,W,0,00,,,M,,M,,*43
$GPGSA,A,1,,,,,,,,,,,,,,,*1E
$GPGSV,3,3,12,24,16,068,00,30,29,303,00,33,09,106,40,35,34,141,43*75
$PGRME,,M,,M,,M*00
$PGRMM,WGS 84*06
$GPRMC,183705,V,4124.7387,N,08152.2515,W,,,010305,007.9,W*65
$GPGGA,183705,4124.7387,N,08152.2515,W,0,00,,,M,,M,,*42
$GPGSA,A,1,,,,,,,,,,,,,,,*1E
$GPGSV,3,1,12,02,72,320,00,04,49,057,00,05,43,262,33,06,03,307,00*70
$PGRME,,M,,M,,M*00
$PGRMM,WGS 84*06
$GPRMC,183706,V,4124.7387,N,08152.2515,W,,,010305,007.9,W*66
$GPGGA,183706,4124.7387,N,08152.2515,W,0,00,,,M,,M,,*41
$GPGSA,A,1,,,,,,,,,,,,,,,*1E
$GPGSV,3,2,12,07,19,126,00,10,45,198,44,13,20,066,00,23,09,039,00*73
$PGRME,,M,,M,,M*00
$PGRMM,WGS 84*06
$GPRMC,183707,V,4124.7387,N,08152.2515,W,,,010305,007.9,W*67
$GPGGA,183707,4124.7387,N,08152.2515,W,0,00,,,M,,M,,*40
$GPGSA,A,1,,,,,,,,,,,,,,,*1E
$GPGSV,3,3,12,24,16,068,00,30,30,302,00,33,09,106,41,35,34,141,44*7A
$PGRME,,M,,M,,M*00
$PGRMM,WGS 84*06
$GPRMC,183708,V,4124.7387,N,08152.2515,W,,,010305,007.9,W*68
$GPGGA,183708,4124.7387,N,08152.2515,W,0,00,,,M,,M,,*4F
$GPGSA,A,1,,,,,,,,,,,,,,,*1E
$GPGSV,3,1,12,02,72,320,00,04,49,057,00,05,43,262,32,06,03,307,00*71
$PGRME,,M,,M,,M*00
$PGRMM,WGS 84*06
$GPRMC,183709,V,4124.7387,N,08152.2515,W,,,010305,007.9,W*69
$GPGGA,183709,4124.7387,N,08152.2515,W,0,00,,,M,,M,,*4E
$GPGSA,A,1,,,,,,,,,,,,,,,*1E
$GPGSV,3,2,12,07,19,126,00,10,45,198,45,13,20,066,00,23,09,039,00*72
$PGRME,,M,,M,,M*00
$PGRMM,WGS 84*06
$GPRMC,183710,V,4124.7387,N,08152.2515,W,,,010305,007.9,W*61
$GPGGA,183710,4124.7387,N,08152.2515,W,0,00,,,M,,M,,*46
$GPGSA,A,1,,,,,,,,,,,,,,,*1E
$GPGSV,3,3,12,24,16,068,00,30,30,302,00,33,09,106,41,35,34,141,43*7D
$PGRME,,M,,M,,M*00
$PGRMM,WGS 84*06
$GPRMC,183711,V,4124.7387,N,08152.2515,W,,,010305,007.9,W*60
$GPGGA,183711,4124.7387,N,08152.2515,W,0,00,,,M,,M,,*47
$GPGSA,A,1,,,,,,,,,,,,,,,*1E
$GPGSV,3,1,12,02,72,320,00,04,49,057,00,05,43,262,31,06,03,307,00*72
$PGRME,,M,,M,,M*00
$PGRMM,WGS 84*06
$GPRMC,183712,V,4124.7387,N,08152.2515,W,,,010305,007.9,W*63
$GPGGA,183712,4124.7387,N,08152.2515,W,0,00,,,M,,M,,*44
$GPGSA,A,1,,,,,,,,,,,,,,,*1E
$GPGSV,3,2,12,07,19,126,00,10,45,198,45,13,20,066,00,23,09,039,00*72
$PGRME,,M,,M,,M*00
$PGRMM,WGS 84*06
$GPRMC,183713,V,4124.7387,N,08152.2515,W,,,010305,007.9,W*62
$GPGGA,183713,4124.7387,N,08152.2515,W,0,00,,,M,,M,,*45
$GPGSA,A,1,,,,,,,,,,,,,,,*1E
$GPGSV,3,3,12,24,16,068,00,30,30,302,00,33,09,106,41,35,34,141,43*7D
$PGRME,,M,,M,,M*00
$PGRMM,WGS 84*06
$GPRMC,183714,V,4124.7387,N,08152.2515,W,,,010305,007.9,W*65
$GPGGA,183714,4124.7387,N,08152.2515,W,0,00,,,M,,M,,*42
$GPGSA,A,1,,,,,,,,,,,,,,,*1E
$GPGSV,3,1,12,02,72,320,00,04,49,057,00,05,43,262,31,06,03,307,00*72
$PGRME,,M,,M,,M*00
$PGRMM,WGS 84*06
$GPRMC,183715,V,4124.7387,N,08152.2515,W,,,010305,007.9,W*64
$GPGGA,183715,4124.7387,N,08152.2515,W,0,00,,,M,,M,,*43
$GPGSA,A,1,,,,,,,,,,,,,,,*1E
$GPGSV,3,2,12,07,19,126,00,10,45,198,46,13,20,066,00,23,09,039,00*71
$PGRME,,M,,M,,M*00
$PGRMM,WGS 84*06
$GPRMC,183716,V,4124.7387,N,08152.2515,W,,,010305,007.9,W*67
$GPGGA,183716,4124.7387,N,08152.2515,W,0,00,,,M,,M,,*40
$GPGSA,A,1,,,,,,,,,,,,,,,*1E
$GPGSV,3,3,12,24,16,068,00,30,30,302,00,33,09,106,41,35,34,141,44*7A
$PGRME,,M,,M,,M*00
$PGRMM,WGS 84*06
$GPRMC,183717,V,4124.7387,N,08152.2515,W,,,010305,007.9,W*66
$GPGGA,183717,4124.7387,N,08152.2515,W,0,00,,,M,,M,,*41
$GPGSA,A,1,,,,,,,,,,,,,,,*1E
$GPGSV,3,1,12,02,72,320,00,04,49,057,00,05,43,262,32,06,03,307,00*71
$PGRME,,M,,M,,M*00
$PGRMM,WGS 84*06
$GPRMC,183718,V,4124.7387,N,08152.2515,W,,,010305,007.9,W*69
$GPGGA,183718,4124.7387,N,08152.2515,W,0,00,,,M,,M,,*4E
$GPGSA,A,1,,,,,,,,,,,,,,,*1E
$GPGSV,3,2,12,07,19,126,37,10,45,198,46,13,20,066,00,23,09,039,00*75
$PGRME,,M,,M,,M*00
$PGRMM,WGS 84*06
$GPRMC,183719,V,4124.7387,N,08152.2515,W,,,010305,007.9,W*68
$GPGGA,183719,4124.7387,N,08152.2515,W,0,00,,,M,,M,,*4F
$GPGSA,A,1,,,,,,,,,,,,,,,*1E
$GPGSV,3,3,12,24,16,068,00,30,30,302,00,33,09,106,41,35,34,141,44*7A
$PGRME,,M,,M,,M*00
$PGRMM,WGS 84*06
$GPRMC,183720,V,4124.7387,N,08152.2515,W,,,010305,007.9,W*62
$GPGGA,183720,4124.7387,N,08152.2515,W,0,00,,,M,,M,,*45
$GPGSA,A,1,,,,,,,,,,,,,,,*1E
$GPGSV,3,1,12,02,72,323,00,04,49,057,00,05,43,262,31,06,03,307,00*71
$PGRME,,M,,M,,M*00
$PGRMM,WGS 84*06
$GPRMC,183721,V,4124.7387,N,08152.2515,W,,,010305,007.9,W*63
$GPGGA,183721,4124.7387,N,08152.2515,W,0,00,,,M,,M,,*44
$GPGSA,A,1,,,,,,,,,,,,,,,*1E
$GPGSV,3,2,12,07,19,126,36,10,45,198,46,13,20,066,00,23,09,039,00*74
$PGRME,,M,,M,,M*00
$PGRMM,WGS 84*06
$GPRMC,183722,V,4124.7387,N,08152.2515,W,,,010305,007.9,W*60
$GPGGA,183722,4124.7387,N,08152.2515,W,0,00,,,M,,M,,*47
$GPGSA,A,1,,,,,,,,,,,,,,,*1E
$GPGSV,3,3,12,24,16,068,00,30,30,302,00,33,09,106,41,35,34,141,44*7A
$PGRME,,M,,M,,M*00
$PGRMM,WGS 84*06
$GPRMC,183723,V,4124.7387,N,08152.2515,W,,,010305,007.9,W*61
$GPGGA,183723,4124.7387,N,08152.2515,W,0,00,,,M,,M,,*46
$GPGSA,A,1,,,,,,,,,,,,,,,*1E
$GPGSV,3,1,12,02,72,323,00,04,49,057,00,05,43,262,31,06,03,307,00*71
$PGRME,,M,,M,,M*00
$PGRMM,WGS 84*06
$GPRMC,183724,V,4124.7387,N,08152.2515,W,,,010305,007.9,W*66
$GPGGA,183724,4124.7387,N,08152.2515,W,0,00,,,M,,M,,*41
$GPGSA,A,1,,,,,,,,,,,,,,,*1E
$GPGSV,3,2,12,07,19,126,37,10,45,198,46,13,20,066,00,23,09,039,00*75
$PGRME,,M,,M,,M*00
$PGRMM,WGS 84*06
$GPRMC,183725,V,4124.7387,N,08152.2515,W,,,010305,007.9,W*67
$GPGGA,183725,4124.7387,N,08152.2515,W,0,00,,,M,,M,,*40
$GPGSA,A,1,,,,,,,,,,,,,,,*1E
$GPGSV,3,3,12,24,16,068,00,30,30,302,00,33,09,106,41,35,34,141,44*7A
$PGRME,,M,,M,,M*00
$PGRMM,WGS 84*06
$GPRMC,183726,V,4124.7387,N,08152.2515,W,,,010305,007.9,W*64
$GPGGA,183726,4124.7387,N,08152.2515,W,0,00,,,M,,M,,*43
$GPGSA,A,1,,,,,,,,,,,,,,,*1E
$GPGSV,3,1,12,02,72,323,00,04,49,057,00,05,43,262,34,06,03,307,00*74
$PGRME,,M,,M,,M*00
$PGRMM,WGS 84*06
$GPRMC,183727,V,4124.7387,N,08152.2515,W,,,010305,007.9,W*65
$GPGGA,183727,4124.7387,N,08152.2515,W,0,00,,,M,,M,,*42
$GPGSA,A,1,,,,,,,,,,,,,,,*1E
$GPGSV,3,2,12,07,19,126,37,10,45,198,46,13,20,066,34,23,09,039,00*72
$PGRME,,M,,M,,M*00
$PGRMM,WGS 84*06
$GPRMC,183728,V,4124.7387,N,08152.2515,W,,,010305,007.9,W*6A
$GPGGA,183728,4124.7387,N,08152.2515,W,0,00,,,M,,M,,*4D
$GPGSA,A,1,,,,,,,,,,,,,,,*1E
$GPGSV,3,3,12,24,16,068,00,30,30,302,00,33,09,106,40,35,34,141,44*7B
$PGRME,,M,,M,,M*00
$PGRMM,WGS 84*06
$GPRMC,183731,A,4124.7348,N,08152.2487,W,000.0,000.0,010305,007.9,W*7C
$GPGGA,183731,4124.7348,N,08152.2487,W,1,03,2.5,256.9,M,-34.0,M,,*75
$GPGSA,A,2,,04,,,,10,,,,,,35,2.7,2.5,1.0*33
$GPGSV,3,1,12,02,72,323,00,04,48,057,00,05,43,262,00,06,03,307,00*72
$PGRME,8.2,M,13.6,M,15.9,M*2D
$PGRMM,WGS 84*06
$GPRMC,183732,A,4124.7344,N,08152.2486,W,000.0,000.0,010305,007.9,W*72
$GPGGA,183732,4124.7344,N,08152.2486,W,1,03,2.5,256.9,M,-34.0,M,,*7B
$GPGSA,A,2,,04,,,,10,,,,,,35,2.7,2.5,1.0*33
$GPGSV,3,2,12,07,19,126,36,10,45,198,46,13,20,066,34,23,09,039,00*73
$PGRME,8.2,M,13.6,M,15.9,M*2D
$PGRMM,WGS 84*06
$GPRMC,183733,A,4124.7341,N,08152.2486,W,000.0,000.0,010305,007.9,W*76
$GPGGA,183733,4124.7341,N,08152.2486,W,1,03,7.4,256.9,M,-34.0,M,,*7B
$GPGSA,A,2,,04,,,,10,,,,,,35,7.6,7.4,1.0*33
$GPGSV,3,3,12,24,16,068,00,30,30,302,00,33,09,106,41,35,34,141,44*7A
$PGRME,8.2,M,13.6,M,15.9,M*2D
$PGRMM,WGS 84*06
$GPRMC,183734,A,4124.7197,N,08152.2484,W,000.0,000.0,010305,007.9,W*7A
$GPGGA,183734,4124.7197,N,08152.2484,W,1,03,11.4,256.9,M,-34.0,M,,*40
$GPGSA,A,2,,04,,,,10,,,,,,35,11.6,11.4,1.0*33
$GPGSV,3,1,12,02,72,323,34,04,48,057,00,05,42,260,35,06,03,307,00*70
$PGRME,8.2,M,13.6,M,15.9,M*2D
$PGRMM,WGS 84*06
$GPRMC,183735,A,4124.7161,N,08152.2477,W,000.0,000.0,010305,007.9,W*7E
$GPGGA,183735,4124.7161,N,08152.2477,W,1,03,14.7,256.9,M,-34.0,M,,*42
$GPGSA,A,2,,04,,,,10,,,,,,35,14.8,14.7,1.0*3E
$GPGSV,3,2,12,07,19,126,36,10,45,198,46,13,20,066,34,23,09,039,00*73
$PGRME,8.2,M,13.6,M,15.9,M*2D
$PGRMM,WGS 84*06
$GPRMC,183736,A,4124.7132,N,08152.2473,W,000.0,000.0,010305,007.9,W*7F
$GPGGA,183736,4124.7132,N,08152.2473,W,1,03,14.7,256.9,M,-34.0,M,,*43
$GPGSA,A,2,,04,,,,10,,,,,,35,14.8,14.7,1.0*3E
$GPGSV,3,3,12,24,16,068,00,30,30,302,00,33,09,106,40,35,34,141,43*7C
$PGRME,8.2,M,13.6,M,15.9,M*2D
$PGRMM,WGS 84*06
$GPRMC,183737,A,4124.7004,N,08152.2451,W,000.0,000.0,010305,007.9,W*7A
$GPGGA,183737,4124.7004,N,08152.2451,W,1,03,17.3,256.9,M,-34.0,M,,*41
$GPGSA,A,2,,04,,,,10,,,,,,35,17.4,17.3,1.0*36
$GPGSV,3,1,12,02,72,323,34,04,48,057,00,05,42,260,00,06,04,307,00*71
$PGRME,8.2,M,13.6,M,15.9,M*2D
$PGRMM,WGS 84*06
$GPRMC,183738,A,4124.6989,N,08152.2448,W,000.0,000.0,010305,007.9,W*70
$GPGGA,183738,4124.6989,N,08152.2448,W,1,03,17.3,256.9,M,-34.0,M,,*4B
$GPGSA,A,2,,04,,,,10,,,,,,35,17.4,17.3,1.0*36
