=~=~=~=~=~=~=~=~=~=~=~= PuTTY log 2010.02.13 13:08:23 =~=~=~=~=~=~=~=~=~=~=~=
2,14,52,083,45,07,,,00,05,,,27*71
$GPGSV,3,3,12,02,,,26,24,,,00,26,30,047,48,06,,,25*43
$GPRMC,110728,A,6013.0600,N,02453.5376,E,000.0,000.0,130210,,,A*79
$GPGGA,110729,6013.0599,N,02453.5376,E,1,04,03.4,-00016.6,M,045.5,M,,*63
$GPGSA,A,3,14,19,22,26,,,,,,,,,04.6,03.4,03.1*0C
$GPGSV,2,1,08,03,,,00,19,25,189,51,22,22,075,51,14,52,083,45*44
$GPGSV,2,2,08,07,,,00,24,,,00,26,30,047,48,06,,,26*4A
$GPRMC,110729,A,6013.0599,N,02453.5376,E,000.0,000.0,130210,,,A*7B
$GPGGA,110730,6013.0599,N,02453.5377,E,1,04,03.4,-00016.6,M,045.5,M,,*6A
$GPGSA,A,3,14,19,22,26,,,,,,,,,04.6,03.4,03.1*0C
$GPGSV,2,1,07,03,,,00,19,25,189,51,22,22,075,50,14,52,083,45*4A
$GPGSV,2,2,07,07,,,00,24,,,00,26,30,047,48,,,,*47
$GPRMC,110730,A,6013.0599,N,02453.5377,E,000.0,000.0,130210,,,A*72
$GPGGA,110731,6013.0599,N,02453.5376,E,1,04,03.4,-00016.6,M,045.5,M,,*6A
$GPGSA,A,3,14,19,22,26,,,,,,,,,04.6,03.4,03.1*0C
$GPGSV,2,1,07,03,,,26,19,25,189,51,22,22,075,51,14,52,083,46*4C
$GPGSV,2,2,07,07,,,26,24,,,26,26,30,047,49,,,,*46
$GPRMC,110731,A,6013.0599,N,02453.5376,E,000.0,000.0,130210,,,A*72
$GPGGA,110732,6013.0599,N,02453.5376,E,1,04,03.4,-00016.7,M,045.5,M,,*68
$GPGSA,A,3,14,19,22,26,,,,,,,,,04.6,03.4,03.1*0C
$GPGSV,3,1,12,03,,,00,11,,,00,19,25,189,51,17,,,00*46
$GPGSV,3,2,12,22,22,075,51,14,52,083,45,07,,,00,04,,,00*76
$GPGSV,3,3,12,15,,,00,24,,,00,26,30,047,48,20,,,00*42
$GPRMC,110732,A,6013.0599,N,02453.5376,E,000.0,000.0,130210,,,A*71
$GPGGA,110733,6013.0599,N,02453.5375,E,1,04,03.4,-00016.8,M,045.5,M,,*65
$GPGSA,A,3,14,19,22,26,,,,,,,,,04.6,03.4,03.1*0C
$GPGSV,2,1,08,11,,,00,19,25,189,50,17,,,00,22,22,075,51*78
$GPGSV,2,2,08,14,52,083,44,04,,,00,26,30,047,47,20,,,00*79
$GPRMC,110733,A,6013.0599,N,02453.5375,E,000.0,000.0,130210,,,A*73
$GPGGA,110734,6013.0600,N,02453.5374,E,1,04,03.4,-00016.9,M,045.5,M,,*61
$GPGSA,A,3,14,19,22,26,,,,,,,,,04.6,03.4,03.1*0C
$GPGSV,2,1,08,11,60,262,23,19,25,189,50,17,12,327,31,22,22,075,51*7E
$GPGSV,2,2,08,14,52,083,44,04,,,00,26,30,047,47,20,,,00*79
$GPRMC,110734,A,6013.0600,N,02453.5374,E,000.0,000.0,130210,,,A*76
$GPGGA,110735,6013.0600,N,02453.5373,E,1,04,03.4,-00016.9,M,045.5,M,,*67
$GPGSA,A,3,14,19,22,26,,,,,,,,,04.6,03.4,03.1*0C
$GPGSV,3,1,12,10,,,00,11,60,262,26,19,25,189,50,17,12,327,28*4E
$GPGSV,3,2,12,22,22,075,51,14,52,083,45,18,,,00,04,,,26*7C
$GPGSV,3,3,12,23,,,00,13,,,00,26,30,047,48,20,19,247,27*7F
$GPRMC,110735,A,6013.0600,N,02453.5373,E,000.0,000.0,130210,,,A*70
$GPGGA,110736,6013.0600,N,02453.5373,E,1,04,03.4,-00016.9,M,045.5,M,,*64
$GPGSA,A,3,14,19,22,26,,,,,,,,,04.6,03.4,03.1*0C
$GPGSV,2,1,05,19,25,189,51,22,22,075,51,14,52,083,45,23,,,27*4E
$GPGSV,2,2,05,26,30,047,48,,,,,,,,,,,,*44
$GPRMC,110736,A,6013.0600,N,02453.5373,E,000.0,000.0,130210,,,A*73
$GPGGA,110737,6013.0600,N,02453.5373,E,1,04,03.4,-00016.8,M,045.5,M,,*64
$GPGSA,A,3,14,19,22,26,,,,,,,,,04.6,03.4,03.1*0C
$GPGSV,3,1,10,01,,,00,29,,,00,19,25,189,50,12,,,00*49
$GPGSV,3,2,10,22,22,075,51,14,52,083,44,21,,,00,32,,,00*74
$GPGSV,3,3,10,23,,,00,26,30,047,48,,,,,,,,*41
$GPRMC,110737,A,6013.0600,N,02453.5373,E,000.0,000.0,130210,,,A*72
$GPGGA,110738,6013.0599,N,02453.5373,E,1,04,03.4,-00016.8,M,045.5,M,,*68
$GPGSA,A,3,14,19,22,26,,,,,,,,,04.6,03.4,03.1*0C
$GPGSV,2,1,07,01,,,00,29,,,00,19,25,189,50,22,22,075,51*7B
$GPGSV,2,2,07,14,52,083,43,32,,,00,26,30,047,48,,,,*79
$GPRMC,110738,A,6013.0599,N,02453.5373,E,000.0,000.0,130210,,,A*7E
$GPGGA,110739,6013.0599,N,02453.5374,E,1,04,03.4,-00016.7,M,045.5,M,,*61
$GPGSA,A,3,14,19,22,26,,,,,,,,,04.6,03.4,03.1*0C
$GPGSV,2,1,07,01,,,25,29,,,25,19,25,189,50,22,22,075,51*7B
$GPGSV,2,2,07,14,52,083,45,32,49,234,27,26,30,047,48,,,,*42
$GPRMC,110739,A,6013.0599,N,02453.5374,E,000.0,000.0,130210,,,A*78
$GPGGA,110740,6013.0599,N,02453.5374,E,1,04,03.4,-00016.6,M,045.5,M,,*6E
$GPGSA,A,3,14,19,22,26,,,,,,,,,04.6,03.4,03.1*0C
$GPGSV,3,1,12,01,,,00,29,,,00,19,25,189,50,09,,,00*41
$GPGSV,3,2,12,22,22,075,51,14,52,083,44,25,,,00,32,,,00*72
$GPGSV,3,3,12,08,,,00,27,,,00,26,30,047,49,16,,,00*49
$GPRMC,110740,A,6013.0599,N,02453.5374,E,000.0,000.0,130210,,,A*76
$GPGGA,110741,6013.0599,N,02453.5374,E,1,04,03.4,-00016.6,M,045.5,M,,*6F
$GPGSA,A,3,14,19,22,26,,,,,,,,,04.6,03.4,03.1*0C
$GPGSV,2,1,07,19,25,189,50,09,,,00,22,22,075,51,14,52,083,45*40
$GPGSV,2,2,07,25,,,00,27,,,00,26,30,047,49,,,,*45
$GPRMC,110741,A,6013.0599,N,02453.5374,E,000.0,000.0,130210,,,A*77
$GPGGA,110742,6013.0599,N,02453.5374,E,1,04,03.4,-00016.5,M,045.5,M,,*6F
$GPGSA,A,3,14,19,22,26,,,,,,,,,04.6,03.4,03.1*0C
$GPGSV,2,1,07,19,25,189,51,09,,,00,22$GPGGA,110826,6013.0600,N,02453.5359,E,1,04,03.4,-00015.9,M,045.5,M,,*61
$GPGSA,A,3,14,19,22,26,,,,,,,,,04.6,03.4,03.1*0C
$GPGSV,3,1,09,28,,,00,19,24,189,49,22,21,075,51,14,52,082,47*45
$GPGSV,3,2,09,05,,,00,02,,,00,06,,,00,26,30,047,48*48
$GPGSV,3,3,09,03,,,00,,,,,,,,,,,,*73
$GPRMC,110826,A,6013.0600,N,02453.5359,E,000.0,000.0,130210,,,A*75
$GPGGA,110827,6013.0600,N,02453.5358,E,1,04,03.4,-00015.9,M,045.5,M,,*61
$GPGSA,A,3,14,19,22,26,,,,,,,,,04.6,03.4,03.1*0C
$GPGSV,3,1,09,28,,,00,19,24,189,48,22,21,075,50,14,52,082,46*44
$GPGSV,3,2,09,05,,,00,02,,,00,06,,,00,26,30,047,47*47
$GPGSV,3,3,09,03,,,00,,,,,,,,,,,,*73
$GPRMC,110827,A,6013.0600,N,02453.5358,E,000.0,000.0,130210,,,A*75
$GPGGA,110828,6013.0600,N,02453.5358,E,1,04,03.4,-00015.9,M,045.5,M,,*6E
$GPGSA,A,3,14,19,22,26,,,,,,,,,04.6,03.4,03.1*0C
$GPGSV,3,1,09,28,,,00,19,24,189,47,22,21,075,50,14,52,082,45*48
$GPGSV,3,2,09,05,,,00,02,,,00,06,,,00,26,30,047,47*47
$GPGSV,3,3,09,03,,,00,,,,,,,,,,,,*73
$GPRMC,110828,A,6013.0600,N,02453.5358,E,000.0,000.0,130210,,,A*7A
$GPGGA,110829,6013.0600,N,02453.5357,E,1,04,03.4,-00015.9,M,045.5,M,,*60
$GPGSA,A,3,14,19,22,26,,,,,,,,,04.6,03.4,03.0*0D
$GPGSV,3,1,09,28,,,00,19,24,189,47,22,21,075,49,14,52,082,45*40
$GPGSV,3,2,09,05,,,00,02,,,00,06,,,00,26,30,047,47*47
$GPGSV,3,3,09,03,,,00,,,,,,,,,,,,*73
$GPRMC,110829,A,6013.0600,N,02453.5357,E,000.0,000.0,130210,,,A*74
$GPGGA,110830,6013.0600,N,02453.5356,E,1,04,03.4,-00015.9,M,045.5,M,,*69
$GPGSA,A,3,14,19,22,26,,,,,,,,,04.6,03.4,03.0*0D
$GPGSV,3,1,09,28,,,00,19,24,189,47,22,21,075,50,14,52,082,46*4B
$GPGSV,3,2,09,05,,,00,02,,,00,06,,,00,26,30,047,47*47
$GPGSV,3,3,09,03,,,00,,,,,,,,,,,,*73
$GPRMC,110830,A,6013.0600,N,02453.5356,E,000.0,000.0,130210,,,A*7D
$GPGGA,110831,6013.0600,N,02453.5356,E,1,04,03.4,-00016.0,M,045.5,M,,*62
$GPGSA,A,3,14,19,22,26,,,,,,,,,04.6,03.4,03.0*0D
$GPGSV,3,1,09,28,,,00,19,24,189,47,22,21,075,50,14,52,082,45*48
$GPGSV,3,2,09,05,,,00,02,,,00,06,,,00,26,30,047,47*47
$GPGSV,3,3,09,03,,,00,,,,,,,,,,,,*73
$GPRMC,110831,A,6013.0600,N,02453.5356,E,000.0,000.0,130210,,,A*7C
$GPGGA,110832,6013.0600,N,02453.5355,E,1,04,03.4,-00016.0,M,045.5,M,,*62
$GPGSA,A,3,14,19,22,26,,,,,,,,,04.6,03.4,03.0*0D
$GPGSV,3,1,09,28,,,00,19,24,189,47,22,21,075,50,14,52,082,45*48
$GPGSV,3,2,09,05,,,00,02,,,00,06,,,00,26,30,047,47*47
$GPGSV,3,3,09,03,,,00,,,,,,,,,,,,*73
$GPRMC,110832,A,6013.0600,N,02453.5355,E,000.0,000.0,130210,,,A*7C
$GPGGA,110833,6013.0600,N,02453.5354,E,1,04,03.4,-00016.0,M,045.5,M,,*62
$GPGSA,A,3,14,19,22,26,,,,,,,,,04.6,03.4,03.0*0D
$GPGSV,3,1,09,28,,,00,19,24,189,47,22,21,075,49,14,52,082,45*40
$GPGSV,3,2,09,05,,,00,02,,,00,06,,,00,26,30,047,47*47
$GPGSV,3,3,09,03,,,00,,,,,,,,,,,,*73
$GPRMC,110833,A,6013.0600,N,02453.5354,E,000.0,000.0,130210,,,A*7C
$GPGGA,110834,6013.0600,N,02453.5353,E,1,04,03.4,-00016.1,M,045.5,M,,*63
$GPGSA,A,3,14,19,22,26,,,,,,,,,04.6,03.4,03.0*0D
$GPGSV,3,1,09,28,,,00,19,24,189,47,22,21,075,50,14,52,082,45*48
$GPGSV,3,2,09,05,,,00,02,,,00,06,,,00,26,30,047,47*47
$GPGSV,3,3,09,03,,,00,,,,,,,,,,,,*73
$GPRMC,110834,A,6013.0600,N,02453.5353,E,000.0,000.0,130210,,,A*7C
$GPGGA,110835,6013.0601,N,02453.5352,E,1,04,03.4,-00016.1,M,045.5,M,,*62
$GPGSA,A,3,14,19,22,26,,,,,,,,,04.6,03.4,03.0*0D
$GPGSV,3,1,09,28,,,27,19,24,189,47,22,21,075,50,14,52,082,45*4D
$GPGSV,3,2,09,05,,,27,02,,,30,06,,,00,26,30,047,47*41
$GPGSV,3,3,09,03,,,00,,,,,,,,,,,,*73
$GPRMC,110835,A,6013.0601,N,02453.5352,E,000.0,000.0,130210,,,A*7D
$GPGGA,110836,6013.0601,N,02453.5351,E,1,04,03.4,-00016.1,M,045.5,M,,*62
$GPGSA,A,3,14,19,22,26,,,,,,,,,04.6,03.4,03.0*0D
$GPGSV,3,1,12,28,,,00,31,,,00,19,24,189,48,07,,,00*45
$GPGSV,3,2,12,22,21,075,51,14,52,082,45,05,,,27,02,,,27*70
$GPGSV,3,3,12,24,,,00,06,,,26,26,30,047,47,03,,,27*4F
$GPRMC,110836,A,6013.0601,N,02453.5351,E,000.0,000.0,130210,,,A*7D
$GPGGA,110837,6013.0602,N,02453.5350,E,1,04,03.4,-00016.1,M,045.5,M,,*61
$GPGSA,A,3,14,19,22,26,,,,,,,,,04.6,03.4,03.0*0D
$GPGSV,2,1,08,31,,,00,19,24,189,47,07,,,00,22,21,075,51*7F
$GPGSV,2,2,08,14,52,082,45,24,,,00,26,30,047,47,03,,,00*7A
$GPRMC,110837,A,6013.0602,N,02453.5350,E,000.0,000.0,130210,,,A*7E
$GPGGA,110838,6013.0602,N,02453.5349,E,1,04,03.4,-00016.1,M,045.5,M,,*66
$GPGSA,A,3,14,19,22,26,,,,,,,,,04.6,03.4,03.0*0D
$GPGSV,2,1,07,31,,,00,19,24,189,48,07,,,00,22,21,075,51*7F
$GPGSV,2,2,07,14,52,082,45,24,,,00,26,30,047,47,,,,*76
$GPRMC,110838,A,6013.0602,N,02453.5349,E,000.0,000.0,130210,,,A*79
$GPGGA,110839,6013.0602,N,02453.5348,E,1,04,03.4,-00016.1,M,045.5,M,,*66
$GPGSA,A,3,14,19,22,26,,,,,,,,,04.6,03.4,03.0*0D
$GPGSV,2,1,07,31,,,00,19,24,189,48,07,,,00,22,21,075,50*7E
$GPGSV,2,2,07,14,52,082,44,24,,,00,26,30,047,47,,,,*77
$GPRMC,110839,A,6013.0602,N,02453.5348,E,000.0,000.0,130210,,,A*79
$GPGGA,110840,6013.0602,N,02453.5348,E,1,04,03.4,-00016.1,M,045.5,M,,*68
$GPGSA,A,3,14,19,22,26,,,,,,,,,04.6,03.4,03.0*0D
$GPGSV,2,1,07,31,,,00,19,24,189,48,07,,,00,22,21,075,49*76
$GPGSV,2,2,07,14,52,082,44,24,,,00,26,30,047,47,,,,*77
$GPRMC,110840,A,6013.0602,N,02453.5348,E,000.0,000.0,130210,,,A*77
$GPGGA,110841,6013.0602,N,02453.5348,E,1,04,03.4,-00016.0,M,045.5,M,,*68
$GPGSA,A,3,14,19,22,26,,,,,,,,,04.6,03.4,03.0*0D
$GPGSV,2,1,07,31,,,00,19,24,189,47,07,,,00,22,21,075,50*71
$GPGSV,2,2,07,14,52,082,44,24,,,00,26,30,047,47,,,,*77
$GPRMC,110841,A,6013.0602,N,02453.5348,E,000.0,000.0,130210,,,A*76
$GPGGA,110842,6013.0602,N,02453.5347,E,1,04,03.4,-00016.0,M,045.5,M,,*64
$GPGSA,A,3,14,19,22,26,,,,,,,,,04.6,03.4,03.0*0D
$GPGSV,2,1,07,31,,,00,19,24,189,47,07,,,00,22,21,075,50*71
$GPGSV,2,2,07,14,52,082,44,24,,,00,26,30,047,47,,,,*77
$GPRMC,110842,A,6013.0602,N,02453.5347,E,000.0,000.0,130210,,,A*7A
$GPGGA,110843,6013.0602,N,02453.5347,E,1,04,03.4,-00015.9,M,045.5,M,,*6F
$GPGSA,A,3,14,19,22,26,,,,,,,,,04.6,03.4,03.0*0D
$GPGSV,2,1,07,31,,,00,19,24,189,48,07,,,00,22,21,075,50*7E
$GPGSV,2,2,07,14,52,082,45,24,,,00,26,30,047,46,,,,*77
$GPRMC,110843,A,6013.0602,N,02453.5347,E,000.0,000.0,130210,,,A*7B
$GPGGA,110844,6013.0602,N,02453.5347,E,1,04,03.4,-00015.9,M,045.5,M,,*68
$GPGSA,A,3,14,19,22,26,,,,,,,,,04.6,03.4,03.0*0D
$GPGSV,2,1,07,31,00,128,26,19,24,189,48,07,,,29,22,21,075,50*4A
$GPGSV,2,2,07,14,52,082,45,24,,,00,26,30,047,47,,,,*76
$GPRMC,110844,A,6013.0602,N,02453.5347,E,000.0,000.0,130210,,,A*7C
$GPGGA,110845,6013.0603,N,02453.5346,E,1,04,03.4,-00015.8,M,045.5,M,,*68
$GPGSA,A,3,14,19,22,26,,,,,,,,,04.6,03.4,03.0*0D
$GPGSV,3,1,12,11,,,00,31,00,128,28,19,24,189,48,07,,,27*7B
$GPGSV,3,2,12,22,21,075,51,14,52,082,45,17,,,00,04,,,00*75
$GPGSV,3,3,12,24,,,25,15,,,00,26,30,047,47,20,,,00*4A
$GPRMC,110845,A,6013.0603,N,02453.5346,E,000.0,000.0,130210,,,A*7D
$GPGGA,110846,6013.0603,N,02453.5345,E,1,04,03.4,-00015.8,M,045.5,M,,*68
$GPGSA,A,3,14,19,22,26,,,,,,,,,04.6,03.4,03.0*0D
$GPGSV,3,1,09,11,,,00,19,24,189,48,22,21,075,51,14,52,082,45*4C
$GPGSV,3,2,09,17,,,00,04,,,00,24,,,00,26,30,047,47*42
$GPGSV,3,3,09,20,,,00,,,,,,,,,,,,*72
$GPRMC,110846,A,6013.0603,N,02453.5345,E,000.0,000.0,130210,,,A*7D
$GPGGA,110847,6013.0603,N,02453.5345,E,1,04,03.4,-00015.7,M,045.5,M,,*66
$GPGSA,A,3,14,19,22,26,,,,,,,,,04.6,03.4,03.0*0D
$GPGSV,3,1,09,11,,,00,19,24,189,48,22,21,075,50,14,52,082,45*4D
$GPGSV,3,2,09,17,,,00,04,,,00,24,,,00,26,30,047,46*43
$GPGSV,3,3,09,20,,,00,,,,,,,,,,,,*72
$GPRMC,110847,A,6013.0603,N,02453.5345,E,000.0,000.0,130210,,,A*7C
$GPGGA,110848,6013.0603,N,02453.5344,E,1,04,03.4,-00015.7,M,045.5,M,,*68
$GPGSA,A,3,14,19,22,26,,,,,,,,,04.6,03.4,03.0*0D
$GPGSV,3,1,09,11,,,00,19,24,189,48,22,21,075,50,14,52,082,45*4D
$GPGSV,3,2,09,17,,,00,04,,,00,24,,,00,26,30,047,47*42
$GPGSV,3,3,09,20,,,00,,,,,,,,,,,,*72
$GPRMC,110848,A,6013.0603,N,02453.5344,E,000.0,000.0,130210,,,A*72
$GPGGA,110849,6013.0603,N,02453.5343,E,1,04,03.4,-00015.7,M,045.5,M,,*6E
$GPGSA,A,3,14,19,22,26,,,,,,,,,04.6,03.4,03.0*0D
$GPGSV,3,1,09,11,,,00,19,24,189,48,22,21,075,50,14,52,082,45*4D
$GPGSV,3,2,09,17,,,00,04,,,00,24,,,00,26,30,047,47*42
$GPGSV,3,3,09,20,,,00,,,,,,,,,,,,*72
$GPRMC,110849,A,6013.0603,N,02453.5343,E,000.0,000.0,130210,,,A*74
$GPGGA,110850,6013.0603,N,02453.5343,E,1,04,03.4,-00015.7,M,045.5,M,,*66
$GPGSA,A,3,14,19,22,26,,,,,,,,,04.6,03.4,03.0*0D
$GPGSV,3,1,09,11,,,00,19,24,189,48,22,21,075,50,14,52,082,46*4E
$GPGSV,3,2,09,17,,,00,04,,,00,24,,,00,26,30,047,47*42
$GPGSV,3,3,09,20,,,00,,,,,,,,,,,,*72
$GPRMC,110850,A,6013.0603,N,02453.5343,E,000.0,000.0,130210,,,A*7C
