$GPGGA,220550,4124.7580,N,08152.2565,W,2,04,4.4,235.1,M,-34.0,M,,*7B
$GPGSA,A,2,02,,,,,,,26,,29,,35,4.5,4.4,1.0*38
$PGRME,16.4,M,13.9,M,21.5,M*10
$PGRMV,0.0,0.0,0.0*5C
$PGRMM,WGS 84*06
$GPGGA,220555,4124.7580,N,08152.2563,W,2,04,3.9,235.9,M,-34.0,M,,*7A
$GPGSA,A,2,02,,,,,,,26,,29,,35,4.0,3.9,1.0*37
$PGRME,16.4,M,13.9,M,21.5,M*10
$PGRMV,0.0,0.0,0.0*5C
$PGRMM,WGS 84*06
$GPGGA,220600,4124.7579,N,08152.2561,W,2,04,3.9,236.6,M,-34.0,M,,*71
$GPGSA,A,2,02,,,,,,,26,,29,,35,4.0,3.9,1.0*37
$PGRME,16.4,M,13.9,M,21.5,M*10
$PGRMV,0.0,0.0,0.0*5C
$PGRMM,WGS 84*06
$GPGGA,220605,4124.7578,N,08152.2560,W,2,04,3.7,236.2,M,-34.0,M,,*7E
$GPGSA,A,2,02,,,,,,,26,,29,,35,3.8,3.7,1.0*36
$PGRME,16.5,M,14.0,M,21.7,M*1D
$PGRMV,0.0,0.0,0.0*5C
$PGRMM,WGS 84*06
$GPGGA,220610,4124.7576,N,08152.2558,W,2,04,3.7,236.1,M,-34.0,M,,*7C
$GPGSA,A,2,02,,,,,,,26,,29,,35,3.8,3.7,1.0*36
$PGRME,16.5,M,14.0,M,21.7,M*1D
$PGRMV,0.0,0.0,0.0*5C
$PGRMM,WGS 84*06
$GPGGA,220615,4124.7574,N,08152.2556,W,2,04,3.7,236.8,M,-34.0,M,,*7C
$GPGSA,A,2,02,,,,,,,26,,29,,35,3.8,3.7,1.0*36
$PGRME,16.5,M,14.0,M,21.7,M*1D
$PGRMV,0.0,0.0,0.0*5C
$PGRMM,WGS 84*06
$GPGGA,220620,4124.7573,N,08152.2555,W,2,04,4.4,237.6,M,-34.0,M,,*75
$GPGSA,A,2,02,,,,,,,26,,29,,35,4.5,4.4,1.0*38
$PGRME,16.4,M,13.9,M,21.5,M*10
$PGRMV,0.0,0.0,0.0*5C
$PGRMM,WGS 84*06
$GPGGA,220625,4124.7571,N,08152.2554,W,2,04,4.6,237.6,M,-34.0,M,,*71
$GPGSA,A,2,02,,,,,,,26,,29,,35,4.8,4.6,1.0*37
$PGRME,16.5,M,14.0,M,21.7,M*1D
$PGRMV,0.0,0.0,0.0*5C
$PGRMM,WGS 84*06
$GPGGA,220630,4124.7570,N,08152.2553,W,2,04,4.7,238.8,M,-34.0,M,,*73
$GPGSA,A,2,,06,,,,,,26,,29,,35,5.2,4.7,1.6*3F
$PGRME,10.3,M,14.1,M,18.7,M*16
$PGRMV,0.0,0.0,0.0*5C
$PGRMM,WGS 84*06
$GPGGA,220635,4124.7569,N,08152.2552,W,2,05,3.1,239.6,M,-34.0,M,,*70
$GPGSA,A,3,02,06,,,,,,26,,29,,35,3.3,3.1,1.0*3C
$PGRME,10.7,M,11.1,M,16.8,M*16
$PGRMV,0.0,0.0,0.0*5C
$PGRMM,WGS 84*06
$GPGGA,220640,4124.7567,N,08152.2551,W,2,04,2.8,239.6,M,-34.0,M,,*76
$GPGSA,A,3,02,06,,,,,,,,29,,35,3.0,2.8,1.0*33
$PGRME,10.3,M,11.1,M,15.1,M*18
$PGRMT,GPS 15-H Ver. 2.02,P,P,R,R,P,,33,R*06
$PGRMV,0.0,0.0,0.0*5C
$PGRMM,WGS 84*06
$GPGGA,220645,4124.7566,N,08152.2550,W,2,04,3.1,241.7,M,-34.0,M,,*75
$GPGSA,A,3,02,06,,,,,,,,29,,35,3.3,3.1,1.0*38
$PGRME,10.3,M,11.1,M,15.1,M*18
$PGRMV,0.0,0.0,0.0*5C
$PGRMM,WGS 84*06
$GPGGA,220650,4124.7564,N,08152.2549,W,2,04,2.8,241.7,M,-34.0,M,,*73
$GPGSA,A,3,02,06,,,,,,,,29,,35,3.0,2.8,1.0*33
$PGRME,10.3,M,11.1,M,15.1,M*18
$PGRMV,0.0,0.0,0.0*5C
$PGRMM,WGS 84*06
$GPGGA,220655,4124.7563,N,08152.2549,W,2,04,3.1,241.8,M,-34.0,M,,*76
$GPGSA,A,2,,06,,,,,,26,,29,,35,3.3,3.1,1.0*3F
$PGRME,10.2,M,11.1,M,15.1,M*19
$PGRMV,0.0,0.0,0.0*5C
$PGRMM,WGS 84*06
$GPGGA,220700,4124.7560,N,08152.2547,W,2,05,3.1,241.9,M,-34.0,M,,*7A
$GPGSA,A,3,02,06,,,,,,26,,29,,35,3.3,3.1,1.0*3C
$PGRME,10.5,M,11.1,M,15.3,M*1C
$PGRMV,0.0,0.0,0.0*5C
$PGRMM,WGS 84*06
$GPGGA,220705,4124.7559,N,08152.2547,W,2,04,2.8,242.1,M,-34.0,M,,*77
$GPGSA,A,3,02,06,,,,,,,,29,,35,3.0,2.8,1.0*33
$PGRME,10.2,M,11.1,M,15.1,M*19
$PGRMV,0.0,0.0,0.0*5C
$PGRMM,WGS 84*06
$GPGGA,220710,4124.7557,N,08152.2546,W,2,05,3.5,242.4,M,-34.0,M,,*74
$GPGSA,A,3,02,06,,,,,,26,,29,,35,4.4,3.5,1.6*3E
$PGRME,8.0,M,7.4,M,10.9,M*1D
$PGRMV,0.0,0.0,0.0*5C
$PGRMM,WGS 84*06
$GPGGA,220715,4124.7555,N,08152.2545,W,2,05,3.5,242.0,M,-34.0,M,,*74
$GPGSA,A,3,02,06,,,,,,26,,29,,35,4.4,3.5,1.6*3E
$PGRME,8.0,M,7.4,M,10.9,M*1D
$PGRMV,0.0,0.0,0.0*5C
$PGRMM,WGS 84*06
$GPGGA,220720,4124.7553,N,08152.2544,W,2,05,3.9,243.2,M,-34.0,M,,*7A
$GPGSA,A,3,02,06,,,,,,26,,29,,35,5.0,3.9,1.6*37
$PGRME,8.0,M,7.4,M,11.0,M*15
$PGRMV,0.0,0.0,0.0*5C
$PGRMM,WGS 84*06
$GPGGA,220725,4124.7551,N,08152.2543,W,2,05,4.2,242.5,M,-34.0,M,,*70
$GPGSA,A,3,02,06,,,,,,26,,29,,35,5.3,4.2,1.6*38
$PGRME,9.0,M,7.4,M,11.8,M*1C
$PGRMV,0.0,0.0,-0.0*71
$PGRMM,WGS 84*06
$GPGGA,220730,4124.7549,N,08152.2543,W,2,05,3.4,241.4,M,-34.0,M,,*7E
$GPGSA,A,3,02,06,,,,,,26,,29,,35,4.4,3.4,1.8*31
$PGRME,7.9,M,6.6,M,10.2,M*13
$PGRMV,0.0,0.0,-0.0*71
$PGRMM,WGS 84*06
$GPGGA,220735,4124.7547,N,08152.2542,W,2,05,3.6,239.5,M,-34.0,M,,*78
$GPGSA,A,3,02,06,,,,,,26,,29,,35,4.9,3.6,2.3*36
$PGRME,7.9,M,6.6,M,10.3,M*12
$PGRMV,0.0,0.0,-0.0*71
$PGRMM,WGS 84*06
$GPGGA,220740,4124.7546,N,08152.2541,W,2,05,3.7,238.6,M,-34.0,M,,*7B
$GPGSA,A,3,02,06,,,,,,26,,29,,35,4.6,3.7,1.0*38
$PGRME,8.0,M,7.4,M,11.0,M*15
$PGRMT,GPS 15-H Ver. 2.02,P,P,R,R,P,,33,R*06
$PGRMV,0.0,0.0,-0.0*71
$PGRMM,WGS 84*06
$GPGGA,220745,4124.7545,N,08152.2541,W,2,05,3.6,239.9,M,-34.0,M,,*72
$GPGSA,A,3,02,06,,,,,,26,,29,,35,4.9,3.6,1.8*3E
$PGRME,8.0,M,7.4,M,11.0,M*15
$PGRMV,0.0,0.0,-0.0*71
$PGRMM,WGS 84*06
$GPGGA,220750,4124.7544,N,08152.2540,W,2,05,3.8,239.3,M,-34.0,M,,*72
$GPGSA,A,3,02,06,,,,,,26,,29,,35,5.0,3.8,1.0*30
$PGRME,8.0,M,7.4,M,11.0,M*15
$PGRMV,0.0,0.0,0.0*5C
$PGRMM,WGS 84*06
$GPGGA,220755,4124.7544,N,08152.2539,W,2,05,3.8,234.3,M,-34.0,M,,*74
$GPGSA,A,3,02,06,,,,,,26,,29,,35,5.1,3.8,1.6*37
$PGRME,8.0,M,7.4,M,11.0,M*15
$PGRMV,0.0,0.0,0.0*5C
$PGRMM,WGS 84*06
$GPGGA,220800,4124.7544,N,08152.2539,W,2,05,3.6,233.4,M,-34.0,M,,*75
$GPGSA,A,3,02,06,,,,,,26,,29,,35,4.9,3.6,2.3*36
$PGRME,7.9,M,6.6,M,10.3,M*12
$PGRMV,0.0,0.0,-0.0*71
$PGRMM,WGS 84*06
$GPGGA,220805,4124.7543,N,08152.2538,W,2,05,3.6,236.1,M,-34.0,M,,*76
$GPGSA,A,3,02,06,,,,,,26,,29,,35,4.9,3.6,2.3*36
$PGRME,7.9,M,6.6,M,10.3,M*12
$PGRMV,0.0,0.0,0.0*5C
$PGRMM,WGS 84*06
$GPGGA,220810,4124.7543,N,08152.2538,W,2,05,3.4,238.4,M,-34.0,M,,*7B
$GPGSA,A,3,02,06,,,,,,26,,29,,35,4.4,3.4,1.2*3B
$PGRME,7.9,M,6.6,M,10.3,M*12
$PGRMV,0.0,0.0,0.0*5C
$PGRMM,WGS 84*06
$GPGGA,220815,4124.7542,N,08152.2537,W,2,05,3.6,241.8,M,-34.0,M,,*70
$GPGSA,A,3,02,06,,,,,,26,,29,,35,4.9,3.6,1.8*3E
$PGRME,7.9,M,6.6,M,10.3,M*12
$PGRMV,0.0,0.0,0.0*5C
$PGRMM,WGS 84*06
$GPGGA,220820,4124.7542,N,08152.2537,W,2,05,4.0,245.4,M,-34.0,M,,*7F
$GPGSA,A,3,02,06,,,,,,26,,29,,35,5.4,4.0,1.6*3D
$PGRME,7.9,M,6.6,M,10.3,M*12
$PGRMV,0.0,0.0,0.1*5D
$PGRMM,WGS 84*06
$GPGGA,220825,4124.7541,N,08152.2536,W,2,05,3.8,246.2,M,-34.0,M,,*72
$GPGSA,A,3,02,06,,,,,,26,,29,,35,5.0,3.8,1.0*30
$PGRME,8.0,M,7.5,M,11.0,M*14
$PGRMV,0.0,0.0,0.0*5C
$PGRMM,WGS 84*06
$GPGGA,220830,4124.7540,N,08152.2536,W,2,05,3.6,250.3,M,-34.0,M,,*7F
$GPGSA,A,3,02,06,,,,,,26,,29,,35,4.9,3.6,2.3*36
$PGRME,8.0,M,7.5,M,11.0,M*14
$PGRMV,0.0,0.0,0.0*5C
$PGRMM,WGS 84*06
$GPGGA,220835,4124.7539,N,08152.2535,W,2,05,4.0,250.4,M,-34.0,M,,*71
$GPGSA,A,3,02,06,,,,,,26,,29,,35,5.4,4.0,1.6*3D
$PGRME,8.0,M,7.5,M,11.0,M*14
$PGRMV,0.0,0.0,0.0*5C
$PGRMM,WGS 84*06
$GPGGA,220840,4124.7537,N,08152.2535,W,2,05,3.6,248.3,M,-34.0,M,,*72
$GPGSA,A,3,02,06,,,,,,26,,29,,35,4.9,3.6,1.8*3E
$PGRME,8.0,M,7.5,M,11.0,M*14
$PGRMT,GPS 15-H Ver. 2.02,P,P,R,R,P,,33,R*06
$PGRMV,0.0,0.0,0.0*5C
$PGRMM,WGS 84*06
$GPGGA,220845,4124.7536,N,08152.2535,W,2,05,3.7,250.3,M,-34.0,M,,*7E
$GPGSA,A,3,02,06,,,,,,26,,29,,35,4.6,3.7,1.0*38
$PGRME,8.0,M,7.5,M,11.0,M*14
$PGRMV,0.0,0.0,0.0*5C
$PGRMM,WGS 84*06
$GPGGA,220850,4124.7535,N,08152.2535,W,2,05,4.0,247.2,M,-34.0,M,,*7E
$GPGSA,A,3,02,06,,,,,,26,,29,,35,5.4,4.0,1.6*3D
$PGRME,8.0,M,7.5,M,11.0,M*14
$PGRMV,0.0,0.0,0.0*5C
$PGRMM,WGS 84*06
$GPGGA,220855,4124.7534,N,08152.2535,W,2,05,4.3,242.3,M,-34.0,M,,*7D
$GPGSA,A,3,02,06,,,,,,26,,29,,35,5.9,4.3,1.6*33
$PGRME,8.0,M,7.5,M,11.0,M*14
$PGRMV,0.0,0.0,0.1*5D
$PGRMM,WGS 84*06
$GPGGA,220900,4124.7533,N,08152.2535,W,2,05,3.4,237.9,M,-34.0,M,,*73
$GPGSA,A,3,02,06,,,,,,26,,29,,35,4.4,3.4,1.8*31
$PGRME,7.9,M,6.7,M,10.3,M*13
$PGRMV,0.0,0.0,0.1*5D
$PGRMM,WGS 84*06
$GPGGA,220905,4124.7532,N,08152.2535,W,2,05,3.7,235.0,M,-34.0,M,,*7F
$GPGSA,A,3,02,06,,,,,,26,,29,,35,3.8,3.7,1.0*31
$PGRME,7.9,M,6.6,M,10.3,M*12
$PGRMV,0.0,0.0,0.1*5D
$PGRMM,WGS 84*06
$GPGGA,220910,4124.7532,N,08152.2536,W,2,05,3.4,235.3,M,-34.0,M,,*78
$GPGSA,A,3,02,06,,,,,,26,,29,,35,4.4,3.4,1.8*31
$PGRME,7.9,M,6.7,M,10.3,M*13
$PGRMV,0.0,0.0,0.0*5C
$PGRMM,WGS 84*06
$GPGGA,220915,4124.7531,N,08152.2536,W,2,05,3.4,234.0,M,-34.0,M,,*7C
$GPGSA,A,3,02,06,,,,,,26,,29,,35,3.7,3.4,1.2*3F
$PGRME,7.9,M,6.6,M,10.4,M*15
$PGRMV,0.0,0.0,0.0*5C
$PGRMM,WGS 84*06
$GPGGA,220920,4124.7531,N,08152.2537,W,2,05,3.7,232.0,M,-34.0,M,,*7E
$GPGSA,A,3,02,06,,,,,,26,,29,,35,3.9,3.7,1.0*30
$PGRME,8.0,M,7.4,M,11.0,M*15
$PGRMV,0.0,0.0,0.0*5C
$PGRMM,WGS 84*06
$GPGGA,220925,4124.7530,N,08152.2537,W,2,05,4.2,231.9,M,-34.0,M,,*72
$GPGSA,A,3,02,06,,,,,,26,,29,,35,4.8,4.2,1.2*36
$PGRME,7.9,M,6.7,M,10.4,M*14
$PGRMV,0.0,0.0,0.0*5C
$PGRMM,WGS 84*06
$GPGGA,220930,4124.7530,N,08152.2537,W,2,05,3.4,233.0,M,-34.0,M,,*7C
$GPGSA,A,3,02,06,,,,,,26,,29,,35,4.4,3.4,2.1*3B
$PGRME,7.9,M,6.7,M,10.4,M*14
$PGRMV,0.0,0.0,0.0*5C
$PGRMM,WGS 84*06
$GPGGA,220935,4124.7530,N,08152.2538,W,2,05,3.6,233.5,M,-34.0,M,,*71
$GPGSA,A,3,02,06,,,,,,26,,29,,35,4.6,3.6,1.0*39
$PGRME,8.5,M,6.7,M,10.9,M*1A
$PGRMV,0.0,0.0,-0.0*71
$PGRMM,WGS 84*06
$GPGGA,220940,4124.7530,N,08152.2538,W,2,05,3.4,233.9,M,-34.0,M,,*7D
$GPGSA,A,3,02,06,,,,,,26,,29,,35,4.4,3.4,1.5*3C
$PGRME,7.9,M,6.7,M,10.4,M*14
$PGRMT,GPS 15-H Ver. 2.02,P,P,R,R,P,,33,R*06
$PGRMV,0.0,0.0,0.0*5C
$PGRMM,WGS 84*06
$GPGGA,220945,4124.7530,N,08152.2539,W,2,05,3.8,233.4,M,-34.0,M,,*78
$GPGSA,A,3,02,06,,,,,,26,,29,,35,5.0,3.8,1.0*30
$PGRME,9.0,M,7.3,M,11.9,M*1A
$PGRMV,0.0,0.0,-0.0*71
$PGRMM,WGS 84*06
$GPGGA,220950,4124.7530,N,08152.2539,W,2,05,3.4,233.5,M,-34.0,M,,*71
$GPGSA,A,3,02,06,,,,,,26,,29,,35,4.4,3.4,1.8*31
$PGRME,7.9,M,6.8,M,10.4,M*1B
$PGRMV,0.0,0.0,-0.0*71
$PGRMM,WGS 84*06
$GPGGA,220955,4124.7530,N,08152.2540,W,2,05,4.0,238.8,M,-34.0,M,,*7F
$GPGSA,A,3,02,06,,,,,,26,,29,,35,5.4,4.0,1.6*3D
$PGRME,8.0,M,7.6,M,11.1,M*16
$PGRMV,0.0,0.0,0.0*5C
$PGRMM,WGS 84*06
$GPGGA,221000,4124.7530,N,08152.2540,W,2,05,3.6,244.2,M,-34.0,M,,*77
$GPGSA,A,3,02,06,,,,,,26,,29,,35,4.9,3.6,2.5*30
$PGRME,8.0,M,7.6,M,11.1,M*16
$PGRMV,0.0,0.0,0.0*5C
$PGRMM,WGS 84*06
$GPGGA,221005,4124.7529,N,08152.2540,W,2,05,3.4,245.9,M,-34.0,M,,*72
$GPGSA,A,3,02,06,,,,,,26,,29,,35,3.6,3.4,1.0*3C
$PGRME,7.9,M,6.8,M,10.4,M*1B
$PGRMV,0.0,0.0,0.0*5C
$PGRMM,WGS 84*06
$GPGGA,221010,4124.7529,N,08152.2540,W,2,05,3.6,244.3,M,-34.0,M,,*7F
$GPGSA,A,3,02,06,,,,,,26,,29,,35,4.1,3.6,1.6*38
$PGRME,8.0,M,7.6,M,11.1,M*16
$PGRMV,0.0,0.0,-0.0*71
$PGRMM,WGS 84*06
$GPGGA,221015,4124.7528,N,08152.2541,W,2,05,3.6,243.0,M,-34.0,M,,*7E
$GPGSA,A,3,02,06,,,,,,26,,29,,35,4.1,3.6,1.7*39
$PGRME,8.0,M,7.6,M,11.1,M*16
$PGRMV,0.0,0.0,0.0*5C
$PGRMM,WGS 84*06
$GPGGA,221020,4124.7527,N,08152.2541,W,2,05,3.6,243.0,M,-34.0,M,,*77
$GPGSA,A,3,02,06,,,,,,26,,29,,35,4.1,3.6,1.7*39
$PGRME,8.0,M,7.6,M,11.1,M*16
$PGRMV,0.0,0.0,0.0*5C
$PGRMM,WGS 84*06
$GPGGA,221025,4124.7527,N,08152.2541,W,2,05,3.8,246.8,M,-34.0,M,,*71
$GPGSA,A,3,02,06,,,,,,26,,29,,35,4.7,3.8,2.2*37
$PGRME,8.0,M,7.6,M,11.1,M*16
$PGRMV,0.0,0.0,0.0*5C
$PGRMM,WGS 84*06
$GPGGA,221030,4124.7526,N,08152.2541,W,2,05,3.8,245.9,M,-34.0,M,,*76
$GPGSA,A,3,02,06,,,,,,26,,29,,35,4.7,3.8,2.2*37
$PGRME,7.9,M,6.8,M,10.4,M*1B
$PGRMV,0.0,0.0,0.0*5C
$PGRMM,WGS 84*06
$GPGGA,221035,4124.7526,N,08152.2541,W,2,05,3.6,246.9,M,-34.0,M,,*7E
$GPGSA,A,3,02,06,,,,,,26,,29,,35,4.9,3.6,2.8*3D
$PGRME,8.0,M,7.6,M,11.1,M*16
$PGRMV,0.0,0.0,0.0*5C
$PGRMM,WGS 84*06
$GPGGA,221040,4124.7526,N,08152.2541,W,2,05,3.6,247.7,M,-34.0,M,,*73
$GPGSA,A,3,02,06,,,,,,26,,29,,35,4.9,3.6,2.8*3D
$PGRME,8.0,M,7.6,M,11.1,M*16
$PGRMT,GPS 15-H Ver. 2.02,P,P,R,R,P,,33,R*06
$PGRMV,0.0,0.0,0.0*5C
$PGRMM,WGS 84*06
$GPGGA,221045,4124.7525,N,08152.2541,W,2,05,3.8,247.9,M,-34.0,M,,*75
$GPGSA,A,3,02,06,,,,,,26,,29,,35,5.3,3.8,3.3*32
$PGRME,7.9,M,6.9,M,10.5,M*1B
$PGRMV,0.0,0.0,0.0*5C
$PGRMM,WGS 84*06
$GPGGA,221050,4124.7525,N,08152.2541,W,2,05,3.8,249.5,M,-34.0,M,,*73
$GPGSA,A,3,02,06,,,,,,26,,29,,35,5.1,3.8,1.7*36
$PGRME,7.9,M,6.9,M,10.5,M*1B
$PGRMV,0.0,0.0,0.0*5C
$PGRMM,WGS 84*06
$GPGGA,221055,4124.7524,N,08152.2541,W,2,05,3.4,248.9,M,-34.0,M,,*76
$GPGSA,A,3,02,06,,,,,,26,,29,,35,4.4,3.4,1.8*31
$PGRME,7.9,M,6.9,M,10.5,M*1B
$PGRMV,0.0,0.0,0.0*5C
$PGRMM,WGS 84*06
$GPGGA,221100,4124.7524,N,08152.2540,W,2,05,3.6,247.8,M,-34.0,M,,*7A
$GPGSA,A,3,02,06,,,,,,26,,29,,35,4.9,3.6,2.3*36
$PGRME,7.9,M,6.9,M,10.5,M*1B
$PGRMV,0.0,0.0,0.0*5C
$PGRMM,WGS 84*06
$GPGGA,221105,4124.7525,N,08152.2540,W,2,05,3.4,245.3,M,-34.0,M,,*75
$GPGSA,A,3,02,06,,,,,,26,,29,,35,4.4,3.4,2.4*3E
$PGRME,7.9,M,6.9,M,10.5,M*1B
$PGRMV,0.0,0.0,0.0*5C
$PGRMM,WGS 84*06
$GPGGA,221110,4124.7523,N,08152.2540,W,2,05,3.4,244.6,M,-34.0,M,,*73
$GPGSA,A,3,02,06,,,,,,26,,29,,35,4.4,3.4,2.9*33
$PGRME,7.9,M,6.9,M,10.5,M*1B
$PGRMV,0.0,0.0,0.0*5C
$PGRMM,WGS 84*06
$GPGGA,221115,4124.7523,N,08152.2539,W,2,05,3.4,244.7,M,-34.0,M,,*79
$GPGSA,A,3,02,06,,,,,,26,,29,,35,4.4,3.4,2.9*33
$PGRME,7.9,M,6.9,M,10.5,M*1B
$PGRMV,0.0,0.0,0.0*5C
$PGRMM,WGS 84*06
$GPGGA,221120,4124.7523,N,08152.2539,W,2,05,3.4,245.4,M,-34.0,M,,*7D
$GPGSA,A,3,02,06,,,,,,26,,29,,35,4.4,3.4,2.9*33
$PGRME,7.9,M,6.9,M,10.5,M*1B
$PGRMV,0.0,0.0,-0.0*71
$PGRMM,WGS 84*06
$GPGGA,221125,4124.7523,N,08152.2539,W,2,05,3.9,246.5,M,-34.0,M,,*77
$GPGSA,A,3,02,06,,,,,,26,,29,,35,5.4,3.9,1.7*32
$PGRME,7.9,M,6.9,M,10.5,M*1B
$PGRMV,0.0,0.0,-0.0*71
$PGRMM,WGS 84*06
$GPGGA,221130,4124.7523,N,08152.2538,W,2,05,3.4,246.7,M,-34.0,M,,*7D
$GPGSA,A,3,02,06,,,,,,26,,29,,35,4.4,3.4,1.8*31
$PGRME,7.9,M,6.9,M,10.5,M*1B
$PGRMV,0.0,0.0,-0.0*71
$PGRMM,WGS 84*06
$GPGGA,221135,4124.7523,N,08152.2538,W,2,05,3.4,246.4,M,-34.0,M,,*7B
$GPGSA,A,3,02,06,,,,,,26,,29,,35,4.4,3.4,1.8*31
$PGRME,7.9,M,6.9,M,10.5,M*1B
$PGRMV,0.0,0.0,-0.0*71
$PGRMM,WGS 84*06
$GPGGA,221140,4124.7522,N,08152.2537,W,2,05,3.4,247.3,M,-34.0,M,,*71
$GPGSA,A,3,02,06,,,,,,26,,29,,35,4.4,3.4,1.9*30
$PGRME,7.9,M,6.9,M,10.5,M*1B
$PGRMT,GPS 15-H Ver. 2.02,P,P,R,R,P,,33,R*06
$PGRMV,0.0,0.0,0.0*5C
$PGRMM,WGS 84*06
$GPGGA,221145,4124.7522,N,08152.2537,W,2,05,3.4,250.3,M,-34.0,M,,*72
$GPGSA,A,3,02,06,,,,,,26,,29,,35,4.4,3.4,2.1*3B
$PGRME,7.9,M,6.9,M,10.5,M*1B
$PGRMV,0.0,0.0,0.0*5C
$PGRMM,WGS 84*06
$GPGGA,221150,4124.7522,N,08152.2536,W,2,05,3.6,253.8,M,-34.0,M,,*7D
$GPGSA,A,3,02,06,,,,,,26,,29,,35,4.9,3.6,2.6*33
$PGRME,7.9,M,6.9,M,10.5,M*1B
$PGRMV,0.0,0.0,0.0*5C
$PGRMM,WGS 84*06
$GPGGA,221155,4124.7522,N,08152.2536,W,2,05,3.7,250.8,M,-34.0,M,,*7A
$GPGSA,A,3,02,06,,,,,,26,,29,,35,5.1,3.7,3.2*3E
$PGRME,8.0,M,7.7,M,11.2,M*14
$PGRMV,0.0,0.0,0.0*5C
$PGRMM,WGS 84*06
$GPGGA,221200,4124.7521,N,08152.2535,W,2,05,3.4,249.6,M,-34.0,M,,*7C
$GPGSA,A,3,02,06,,,,,,26,,29,,35,4.4,3.4,2.9*33
$PGRME,7.9,M,7.0,M,10.5,M*13
$PGRMV,0.0,0.0,0.0*5C
$PGRMM,WGS 84*06
$GPGGA,221205,4124.7521,N,08152.2534,W,2,05,3.4,248.6,M,-34.0,M,,*79
$GPGSA,A,3,02,06,,,,,,26,,29,,35,4.4,3.4,2.9*33
$PGRME,7.9,M,7.0,M,10.5,M*13
$PGRMV,0.0,0.0,0.0*5C
$PGRMM,WGS 84*06
$GPGGA,221210,4124.7521,N,08152.2534,W,2,05,3.6,248.2,M,-34.0,M,,*7B
$GPGSA,A,3,02,06,,,,,,26,,29,,35,4.6,3.6,2.9*33
$PGRME,7.9,M,7.0,M,10.5,M*13
$PGRMV,0.0,0.0,-0.0*71
$PGRMM,WGS 84*06
$GPGGA,221215,4124.7521,N,08152.2533,W,2,05,3.6,248.2,M,-34.0,M,,*79
$GPGSA,A,3,02,06,,,,,,26,,29,,35,4.7,3.6,3.0*3A
$PGRME,7.9,M,7.0,M,10.5,M*13
$PGRMV,0.0,0.0,0.0*5C
$PGRMM,WGS 84*06
$GPGGA,221220,4124.7520,N,08152.2533,W,2,05,3.6,248.4,M,-34.0,M,,*78
$GPGSA,A,3,02,06,,,,,,26,,29,,35,4.6,3.6,2.9*33
$PGRME,7.9,M,7.0,M,10.5,M*13
$PGRMV,0.0,0.0,0.0*5C
$PGRMM,WGS 84*06
$GPGGA,221225,4124.7521,N,08152.2533,W,2,05,3.4,243.4,M,-34.0,M,,*75
$GPGSA,A,3,02,06,,,,,,26,,29,,35,4.4,3.4,2.9*33
$PGRME,7.9,M,7.0,M,10.5,M*13
$PGRMV,0.0,0.0,0.0*5C
$PGRMM,WGS 84*06
$GPGGA,221230,4124.7520,N,08152.2532,W,2,05,3.4,241.4,M,-34.0,M,,*73
$GPGSA,A,3,02,06,,,,,,26,,29,,35,4.4,3.4,1.2*3B
$PGRME,7.9,M,7.0,M,10.6,M*10
$PGRMV,0.0,0.0,-0.0*71
$PGRMM,WGS 84*06
$GPGGA,221235,4124.7520,N,08152.2532,W,2,05,3.4,241.2,M,-34.0,M,,*70
$GPGSA,A,3,02,06,,,,,,26,,29,,35,4.4,3.4,1.2*3B
$PGRME,7.9,M,7.0,M,10.6,M*10
$PGRMV,0.0,0.0,0.0*5C
$PGRMM,WGS 84*06
$GPGGA,221240,4124.7520,N,08152.2532,W,2,05,4.1,240.5,M,-34.0,M,,*76
$GPGSA,A,3,02,06,,,,,,26,,29,,35,5.0,4.1,1.2*3C
$PGRME,7.9,M,7.0,M,10.6,M*10
$PGRMT,GPS 15-H Ver. 2.02,P,P,R,R,P,,33,R*06
$PGRMV,0.0,0.0,0.0*5C
$PGRMM,WGS 84*06
$GPGGA,221245,4124.7520,N,08152.2531,W,2,05,3.5,238.0,M,-34.0,M,,*79
$GPGSA,A,3,02,06,,,,,,26,,29,,35,4.6,3.5,1.5*3F
$PGRME,8.9,M,7.1,M,11.5,M*1C
$PGRMV,0.0,0.0,0.0*5C
$PGRMM,WGS 84*06
$GPGGA,221250,4124.7520,N,08152.2531,W,2,05,3.9,236.9,M,-34.0,M,,*76
$GPGSA,A,3,02,06,,,,,,26,,29,,35,4.9,3.9,1.3*3A
$PGRME,7.9,M,7.0,M,10.6,M*10
$PGRMV,0.0,0.0,0.0*5C
$PGRMM,WGS 84*06
$GPGGA,221255,4124.7521,N,08152.2531,W,2,05,4.9,238.2,M,-34.0,M,,*70
$GPGSA,A,3,02,06,,,,,,26,,29,,35,5.7,4.9,1.0*31
$PGRME,8.9,M,7.1,M,11.5,M*1C
$PGRMV,0.0,0.0,0.0*5C
$PGRMM,WGS 84*06
$GPGGA,221300,4124.7521,N,08152.2531,W,2,05,4.0,239.5,M,-34.0,M,,*7E
$GPGSA,A,3,02,06,,,,,,26,,29,,35,4.9,4.0,1.0*37
$PGRME,8.6,M,7.0,M,11.2,M*15
$PGRMV,0.0,0.0,0.0*5C
$PGRMM,WGS 84*06
$GPGGA,221305,4124.7521,N,08152.2531,W,2,05,4.4,236.0,M,-34.0,M,,*75
$GPGSA,A,3,02,06,,,,,,26,,29,,35,5.5,4.4,1.9*37
$PGRME,8.9,M,7.2,M,11.5,M*1F
$PGRMV,0.0,0.0,-0.0*71
$PGRMM,WGS 84*06
$GPGGA,221310,4124.7522,N,08152.2531,W,2,05,4.6,232.7,M,-34.0,M,,*73
$GPGSA,A,3,02,06,,,,,,26,,29,,35,5.7,4.6,2.3*3E
$PGRME,7.9,M,7.1,M,10.6,M*11
$PGRMV,0.0,0.0,0.0*5C
$PGRMM,WGS 84*06
$GPGGA,221315,4124.7523,N,08152.2530,W,2,05,3.4,232.1,M,-34.0,M,,*75
$GPGSA,A,3,02,06,,,,,,26,,29,,35,4.4,3.4,1.2*3B
$PGRME,7.9,M,7.1,M,10.6,M*11
$PGRMV,0.0,0.0,0.0*5C
$PGRMM,WGS 84*06
$GPGGA,221320,4124.7523,N,08152.2530,W,2,05,3.5,232.7,M,-34.0,M,,*74
$GPGSA,A,3,02,06,,,,,,26,,29,,35,4.9,3.5,2.5*33
$PGRME,8.0,M,7.8,M,11.2,M*1B
$PGRMV,0.0,0.0,0.0*5C
$PGRMM,WGS 84*06
$GPGGA,221325,4124.7523,N,08152.2530,W,2,05,3.7,234.2,M,-34.0,M,,*70
$GPGSA,A,3,02,06,,,,,,26,,29,,35,5.0,3.7,2.9*35
$PGRME,8.9,M,7.2,M,11.5,M*1F
$PGRMV,0.0,0.0,0.0*5C
$PGRMM,WGS 84*06
$GPGGA,221330,4124.7523,N,08152.2529,W,2,05,3.4,234.1,M,-34.0,M,,*7C
$GPGSA,A,3,02,06,,,,,,26,,29,,35,4.4,3.4,1.2*3B
$PGRME,7.9,M,7.1,M,10.6,M*11
$PGRMV,0.0,0.0,-0.0*71
$PGRMM,WGS 84*06
$GPGGA,221335,4124.7523,N,08152.2529,W,2,05,3.3,235.7,M,-34.0,M,,*79
$GPGSA,A,3,02,06,,,,,,26,,29,,35,4.4,3.3,1.9*37
$PGRME,7.9,M,7.1,M,10.6,M*11
$PGRMV,0.0,0.0,-0.0*71
$PGRMM,WGS 84*06
$GPGGA,221340,4124.7524,N,08152.2529,W,2,05,3.3,236.8,M,-34.0,M,,*70
$GPGSA,A,3,02,06,,,,,,26,,29,,35,4.4,3.3,1.2*3C
$PGRME,7.9,M,7.1,M,10.6,M*11
$PGRMT,GPS 15-H Ver. 2.02,P,P,R,R,P,,33,R*06
$PGRMV,0.0,0.0,0.0*5C
$PGRMM,WGS 84*06
$GPGGA,221345,4124.7524,N,08152.2529,W,2,05,3.5,239.1,M,-34.0,M,,*75
$GPGSA,A,3,02,06,,,,,,26,,29,,35,4.9,3.5,2.7*31
$PGRME,8.0,M,7.8,M,11.2,M*1B
$PGRMV,0.0,0.0,0.0*5C
$PGRMM,WGS 84*06
$GPGGA,221350,4124.7524,N,08152.2529,W,2,05,3.5,240.9,M,-34.0,M,,*77
$GPGSA,A,3,02,06,,,,,,26,,29,,35,4.9,3.5,2.7*31
$PGRME,8.0,M,7.8,M,11.3,M*1A
$PGRMV,0.0,0.0,-0.0*71
$PGRMM,WGS 84*06
$GPGGA,221355,4124.7524,N,08152.2529,W,2,05,4.0,239.3,M,-34.0,M,,*74
$GPGSA,A,3,02,06,,,,,,26,,29,,35,5.7,4.0,2.2*39
$PGRME,8.8,M,8.5,M,13.0,M*11
$PGRMV,0.0,0.0,-0.0*71
$PGRMM,WGS 84*06
$GPGGA,221400,4124.7524,N,08152.2529,W,2,05,3.3,238.5,M,-34.0,M,,*70
$GPGSA,A,3,02,06,,,,,,26,,29,,35,4.4,3.3,2.3*3E
$PGRME,7.9,M,7.1,M,10.6,M*11
$PGRMV,0.0,0.0,0.0*5C
$PGRMM,WGS 84*06
$GPGGA,221405,4124.7525,N,08152.2528,W,2,05,3.3,239.4,M,-34.0,M,,*75
$GPGSA,A,3,02,06,,,,,,26,,29,,35,4.4,3.3,2.8*35
$PGRME,7.9,M,7.1,M,10.6,M*11
$PGRMV,0.0,0.0,-0.0*71
$PGRMM,WGS 84*06
$GPGGA,221410,4124.7525,N,08152.2528,W,2,05,3.6,239.1,M,-34.0,M,,*71
$GPGSA,A,3,02,06,,,,,,26,,29,,35,4.0,3.6,1.5*3A
$PGRME,7.9,M,7.1,M,10.6,M*11
$PGRMV,0.0,0.0,0.0*5C
$PGRMM,WGS 84*06
$GPGGA,221415,4124.7525,N,08152.2528,W,2,05,3.5,241.5,M,-34.0,M,,*7C
$GPGSA,A,3,02,06,,,,,,26,,29,,35,4.4,3.5,1.9*31
$PGRME,8.9,M,7.3,M,11.6,M*1D
$PGRMV,0.0,0.0,0.0*5C
$PGRMM,WGS 84*06
$GPGGA,221420,4124.7526,N,08152.2528,W,2,05,3.3,241.6,M,-34.0,M,,*7C
$GPGSA,A,3,02,06,,,,,,26,,29,,35,4.4,3.3,1.2*3C
$PGRME,7.9,M,7.2,M,10.7,M*13
$PGRMV,0.0,0.0,-0.0*71
$PGRMM,WGS 84*06
$GPGGA,221425,4124.7525,N,08152.2527,W,2,05,3.3,240.7,M,-34.0,M,,*75
$GPGSA,A,3,02,06,,,,,,26,,29,,35,4.4,3.3,1.7*39
$PGRME,7.9,M,7.2,M,10.7,M*13
$PGRMV,0.0,0.0,-0.0*71
$PGRMM,WGS 84*06
$GPGGA,221430,4124.7525,N,08152.2527,W,2,05,3.3,242.0,M,-34.0,M,,*74
$GPGSA,A,3,02,06,,,,,,26,,29,,35,4.4,3.3,1.9*37
$PGRME,7.9,M,7.2,M,10.7,M*13
$PGRMV,0.0,0.0,-0.0*71
$PGRMM,WGS 84*06
$GPGGA,221435,4124.7525,N,08152.2526,W,2,05,3.3,243.6,M,-34.0,M,,*77
$GPGSA,A,3,02,06,,,,,,26,,29,,35,4.4,3.3,1.9*37
$PGRME,7.9,M,7.2,M,10.7,M*13
$PGRMV,0.0,0.0,0.0*5C
$PGRMM,WGS 84*06
$GPGGA,221440,4124.7525,N,08152.2526,W,2,05,3.3,243.8,M,-34.0,M,,*7B
$GPGSA,A,3,02,06,,,,,,26,,29,,35,4.4,3.3,2.0*3D
$PGRME,7.9,M,7.2,M,10.7,M*13
$PGRMT,GPS 15-H Ver. 2.02,P,P,R,R,P,,33,R*06
$PGRMV,0.0,0.0,0.0*5C
$PGRMM,WGS 84*06
$GPGGA,221445,4124.7526,N,08152.2526,W,2,05,4.0,244.1,M,-34.0,M,,*77
$GPGSA,A,3,02,06,,,,,,26,,29,,35,5.0,4.0,1.2*3D
$PGRME,8.9,M,7.3,M,11.6,M*1D
$PGRMV,0.0,0.0,0.0*5C
$PGRMM,WGS 84*06
$GPGGA,221450,4124.7525,N,08152.2526,W,2,05,4.5,244.5,M,-34.0,M,,*71
$GPGSA,A,3,02,06,,,,,,26,,29,,35,5.3,4.5,1.2*3B
$PGRME,8.9,M,7.4,M,11.6,M*1A
$PGRMV,0.0,0.0,-0.0*71
$PGRMM,WGS 84*06
$GPGGA,221455,4124.7525,N,08152.2525,W,2,04,4.5,244.2,M,-34.0,M,,*71
$GPGSA,A,3,02,06,,,,,,26,,,,35,5.3,4.5,1.2*30
$PGRME,8.9,M,7.4,M,11.6,M*1A
$PGRMV,0.0,0.0,0.0*5C
$PGRMM,WGS 84*06
$GPGGA,221500,4124.7525,N,08152.2525,W,2,05,5.1,243.2,M,-34.0,M,,*73
$GPGSA,A,3,02,06,,,,,,26,,29,,35,5.7,5.1,1.0*38
$PGRME,8.9,M,7.4,M,11.6,M*1A
$PGRMV,0.0,0.0,0.0*5C
$PGRMM,WGS 84*06
$GPGGA,221505,4124.7525,N,08152.2524,W,2,05,3.7,244.1,M,-34.0,M,,*73
$GPGSA,A,3,02,06,,,,,,26,,29,,35,4.8,3.7,1.8*3E
$PGRME,8.9,M,7.4,M,11.6,M*1A
$PGRMV,0.0,0.0,0.0*5C
$PGRMM,WGS 84*06
$GPGGA,221510,4124.7525,N,08152.2524,W,2,05,3.7,245.1,M,-34.0,M,,*76
$GPGSA,A,3,02,06,,,,,,26,,29,,35,4.8,3.7,1.8*3E
$PGRME,7.9,M,7.2,M,10.7,M*13
$PGRMV,0.0,0.0,0.0*5C
$PGRMM,WGS 84*06
$GPGGA,221515,4124.7526,N,08152.2524,W,2,05,4.0,244.9,M,-34.0,M,,*79
$GPGSA,A,3,02,06,,,,,,26,,29,,35,4.9,4.0,1.2*35
$PGRME,8.9,M,7.4,M,11.6,M*1A
$PGRMV,0.0,0.0,0.0*5C
$PGRMM,WGS 84*06
$GPGGA,221520,4124.7526,N,08152.2524,W,2,05,3.3,245.8,M,-34.0,M,,*7B
$GPGSA,A,3,02,06,,,,,,26,,29,,35,4.4,3.3,1.4*3A
$PGRME,7.9,M,7.2,M,10.7,M*13
$PGRMV,0.0,0.0,-0.0*71
$PGRMM,WGS 84*06
$GPGGA,221525,4124.7525,N,08152.2523,W,2,05,3.3,246.1,M,-34.0,M,,*70
$GPGSA,A,3,02,06,,,,,,26,,29,,35,4.4,3.3,1.4*3A
$PGRME,7.9,M,7.2,M,10.7,M*13
$PGRMV,0.0,0.0,0.0*5C
$PGRMM,WGS 84*06
$GPGGA,221530,4124.7525,N,08152.2523,W,2,05,3.5,245.7,M,-34.0,M,,*77
$GPGSA,A,3,02,06,,,,,,26,,29,,35,4.6,3.5,1.7*3D
$PGRME,7.9,M,7.2,M,10.7,M*13
$PGRMV,0.0,0.0,0.0*5C
$PGRMM,WGS 84*06
$GPGGA,221535,4124.7525,N,08152.2523,W,2,05,3.5,245.3,M,-34.0,M,,*76
$GPGSA,A,3,02,06,,,,,,26,,29,,35,4.6,3.5,1.9*33
$PGRME,8.9,M,7.4,M,11.6,M*1A
$PGRMV,0.0,0.0,0.0*5C
$PGRMM,WGS 84*06
$GPGGA,221540,4124.7525,N,08152.2522,W,2,05,3.5,242.6,M,-34.0,M,,*77
$GPGSA,A,3,02,06,,,,,,26,,29,,35,4.6,3.5,2.1*38
$PGRME,7.9,M,7.3,M,10.7,M*12
$PGRMT,GPS 15-H Ver. 2.02,P,P,R,R,P,,33,R*06
$PGRMV,0.0,0.0,-0.0*71
$PGRMM,WGS 84*06
$GPGGA,221545,4124.7525,N,08152.2522,W,2,05,3.3,241.4,M,-34.0,M,,*75
$GPGSA,A,3,02,06,,,,,,26,,29,,35,4.4,3.3,2.4*39
$PGRME,7.9,M,7.3,M,10.7,M*12
$PGRMV,0.0,0.0,-0.0*71
$PGRMM,WGS 84*06
$GPGGA,221550,4124.7524,N,08152.2521,W,2,05,3.3,240.6,M,-34.0,M,,*70
$GPGSA,A,3,02,06,,,,,,26,,29,,35,4.4,3.3,1.4*3A
$PGRME,7.9,M,7.3,M,10.7,M*12
$PGRMV,0.0,0.0,0.0*5C
$PGRMM,WGS 84*06
$GPGGA,221555,4124.7524,N,08152.2522,W,2,05,3.5,241.4,M,-34.0,M,,*73
$GPGSA,A,3,02,06,,,,,,26,,29,,35,4.9,3.5,2.3*35
$PGRME,8.0,M,8.0,M,11.3,M*1D
$PGRMV,0.0,0.0,0.0*5C
$PGRMM,WGS 84*06
$GPGGA,221600,4124.7524,N,08152.2522,W,2,05,3.5,241.5,M,-34.0,M,,*71
$GPGSA,A,3,02,06,,,,,,26,,29,,35,4.9,3.5,3.0*37
$PGRME,7.9,M,7.3,M,10.7,M*12
$PGRMV,0.0,0.0,0.0*5C
$PGRMM,WGS 84*06
$GPGGA,221605,4124.7525,N,08152.2521,W,2,05,3.5,240.5,M,-34.0,M,,*77
$GPGSA,A,3,02,06,,,,,,26,,29,,35,4.5,3.5,2.9*33
$PGRME,8.8,M,7.5,M,11.6,M*1A
$PGRMV,0.0,0.0,0.0*5C
$PGRMM,WGS 84*06
$GPGGA,221610,4124.7524,N,08152.2521,W,2,05,4.2,237.0,M,-34.0,M,,*77
$GPGSA,A,3,02,06,,,,,,26,,29,,35,5.6,4.2,1.7*3C
$PGRME,8.0,M,8.0,M,11.3,M*1D
$PGRMV,0.0,0.0,0.0*5C
$PGRMM,WGS 84*06
$GPGGA,221615,4124.7524,N,08152.2521,W,2,05,4.3,236.9,M,-34.0,M,,*7B
$GPGSA,A,3,02,06,,,,,,26,,29,,35,4.6,4.3,1.0*3B
$PGRME,10.6,M,8.2,M,13.6,M*27
$PGRMV,0.0,0.0,-0.0*71
$PGRMM,WGS 84*06
$GPGGA,221620,4124.7523,N,08152.2521,W,2,05,4.4,235.9,M,-34.0,M,,*7E
$GPGSA,A,3,02,06,,,,,,26,,29,,35,4.7,4.4,1.2*3F
$PGRME,7.9,M,7.3,M,10.8,M*1D
$PGRMV,0.0,0.0,0.0*5C
$PGRMM,WGS 84*06
$GPGGA,221625,4124.7524,N,08152.2521,W,2,05,4.4,232.4,M,-34.0,M,,*76
$GPGSA,A,3,02,06,,,,,,26,,29,,35,4.5,4.4,1.0*3F
$PGRME,10.0,M,8.1,M,13.0,M*24
$PGRMV,0.0,0.0,0.0*5C
$PGRMM,WGS 84*06
$GPGGA,221630,4124.7524,N,08152.2521,W,2,05,3.8,229.3,M,-34.0,M,,*74
$GPGSA,A,3,02,06,,,,,,26,,29,,35,5.1,3.8,1.0*31
$PGRME,7.9,M,7.3,M,10.8,M*1D
$PGRMV,0.0,0.0,0.0*5C
$PGRMM,WGS 84*06
$GPGGA,221635,4124.7524,N,08152.2521,W,2,05,4.3,230.3,M,-34.0,M,,*75
$GPGSA,A,3,02,06,,,,,,26,,29,,35,5.1,4.3,1.7*3A
$PGRME,7.9,M,7.4,M,10.8,M*1A
$PGRMV,0.0,0.0,-0.0*71
$PGRMM,WGS 84*06
$GPGGA,221640,4124.7525,N,08152.2521,W,2,05,3.7,230.2,M,-34.0,M,,*74
$GPGSA,A,3,02,06,,,,,,26,,29,,35,3.9,3.7,1.0*30
$PGRME,8.7,M,8.5,M,12.9,M*16
$PGRMT,GPS 15-H Ver. 2.02,P,P,R,R,P,,33,R*06
$PGRMV,0.0,0.0,-0.0*71
$PGRMM,WGS 84*06
$GPGGA,221645,4124.7526,N,08152.2521,W,2,05,4.0,228.4,M,-34.0,M,,*7D
$GPGSA,A,3,02,06,,,,,,26,,29,,35,4.3,4.0,1.0*3D
$PGRME,8.7,M,8.2,M,12.2,M*1A
$PGRMV,0.0,0.0,-0.0*71
$PGRMM,WGS 84*06
$GPGGA,221650,4124.7525,N,08152.2521,W,2,05,4.3,225.9,M,-34.0,M,,*79
$GPGSA,A,3,02,06,,,,,,26,,29,,35,4.9,4.3,1.7*33
$PGRME,7.9,M,7.4,M,10.8,M*1A
$PGRMV,0.0,0.0,-0.0*71
$PGRMM,WGS 84*06
$GPGGA,221655,4124.7526,N,08152.2521,W,2,05,4.1,224.4,M,-34.0,M,,*71
$GPGSA,A,3,02,06,,,,,,26,,29,,35,4.6,4.1,1.0*39
$PGRME,8.6,M,8.0,M,11.9,M*11
$PGRMV,0.0,0.0,-0.0*71
$PGRMM,WGS 84*06
$GPGGA,221700,4124.7526,N,08152.2520,W,2,05,3.3,224.8,M,-34.0,M,,*78
$GPGSA,A,3,02,06,,,,,,26,,29,,35,3.9,3.3,1.2*36
$PGRME,7.9,M,7.4,M,10.8,M*1A
$PGRMV,0.0,0.0,-0.0*71
$PGRMM,WGS 84*06
$GPGGA,221705,4124.7527,N,08152.2522,W,2,05,4.0,224.9,M,-34.0,M,,*7B
$GPGSA,A,3,02,06,,,,,,26,,29,,35,4.2,4.0,1.0*3C
$PGRME,7.9,M,7.4,M,10.8,M*1A
$PGRMV,0.0,0.0,0.0*5C
$PGRMM,WGS 84*06
$GPGGA,221710,4124.7527,N,08152.2522,W,2,05,3.6,225.0,M,-34.0,M,,*76
$GPGSA,A,3,02,06,,,,,,26,,29,,35,3.8,3.6,1.0*30
$PGRME,9.6,M,7.3,M,12.2,M*14
$PGRMV,0.0,0.0,0.0*5C
$PGRMM,WGS 84*06
$GPGGA,221715,4124.7528,N,08152.2522,W,2,05,3.6,224.1,M,-34.0,M,,*7C
$GPGSA,A,3,02,06,,,,,,26,,29,,35,3.8,3.6,1.0*30
$PGRME,9.7,M,7.5,M,12.4,M*15
$PGRMV,0.0,0.0,0.0*5C
$PGRMM,WGS 84*06
$GPGGA,221720,4124.7527,N,08152.2522,W,2,05,3.4,228.3,M,-34.0,M,,*79
$GPGSA,A,3,02,06,,,,,,26,,29,,35,3.9,3.4,1.0*33
$PGRME,8.4,M,7.4,M,11.2,M*13
$PGRMV,0.0,0.0,0.0*5C
$PGRMM,WGS 84*06
$GPGGA,221725,4124.7528,N,08152.2522,W,2,05,3.8,226.8,M,-34.0,M,,*7A
$GPGSA,A,3,02,06,,,,,,26,,29,,35,4.7,3.8,2.0*35
$PGRME,8.0,M,8.1,M,11.4,M*1B
$PGRMV,0.0,0.0,0.0*5C
$PGRMM,WGS 84*06
$GPGGA,221730,4124.7664,N,08152.2502,W,2,05,3.5,226.9,M,-34.0,M,,*7B
$GPGSA,A,3,02,06,,,,,,26,,29,,35,4.5,3.5,2.2*38
$PGRME,8.8,M,7.6,M,11.7,M*18
$PGRMV,0.0,0.0,-0.0*71
$PGRMM,WGS 84*06
$GPGGA,221735,4124.7657,N,08152.2491,W,2,05,3.3,232.3,M,-34.0,M,,*7C
$GPGSA,A,3,02,06,,,,,,26,,29,,35,4.4,3.3,2.4*39
$PGRME,7.9,M,7.4,M,10.8,M*1A
$PGRMV,0.0,0.0,0.0*5C
$PGRMM,WGS 84*06
$GPGGA,221740,4124.7624,N,08152.2482,W,2,05,3.3,273.9,M,-34.0,M,,*77
$GPGSA,A,3,02,06,,,,,,26,,29,,35,4.4,3.3,2.4*39
$PGRME,7.9,M,7.4,M,10.8,M*1A
$PGRMT,GPS 15-H Ver. 2.02,P,P,R,R,P,,33,R*06
$PGRMV,0.0,0.0,-0.0*71
$PGRMM,WGS 84*06
$GPGGA,221745,4124.7513,N,08152.2450,W,2,05,3.5,269.7,M,-34.0,M,,*79
$GPGSA,A,3,02,06,,,,,,26,,29,,35,4.9,3.5,2.9*3F
$PGRME,7.9,M,7.4,M,10.8,M*1A
$PGRMV,0.0,0.0,-0.0*71
$PGRMM,WGS 84*06
$GPGGA,221750,4124.7503,N,08152.2446,W,2,05,3.7,289.6,M,-34.0,M,,*76
$GPGSA,A,3,02,06,,,,,,26,,29,,35,4.3,3.7,1.0*3D
$PGRME,8.5,M,8.1,M,11.8,M*12
$PGRMV,0.0,0.0,-0.0*71
$PGRMM,WGS 84*06
$GPGGA,221755,4124.7496,N,08152.2444,W,2,05,3.9,277.2,M,-34.0,M,,*77
$GPGSA,A,3,02,06,,,,,,26,,29,,35,4.8,3.9,1.7*3F
$PGRME,8.4,M,8.1,M,11.8,M*13
$PGRMV,0.0,0.0,-0.0*71
$PGRMM,WGS 84*06
$GPGGA,221800,4124.7490,N,08152.2442,W,2,05,3.3,276.2,M,-34.0,M,,*73
$GPGSA,A,3,02,06,,,,,,26,,29,,35,4.4,3.3,2.3*3E
$PGRME,7.9,M,7.5,M,10.9,M*1A
$PGRMV,0.0,0.0,0.0*5C
$PGRMM,WGS 84*06
$GPGGA,221805,4124.7485,N,08152.2442,W,2,05,3.8,274.5,M,-34.0,M,,*7C
$GPGSA,A,3,02,06,,,,,,26,,29,,35,4.3,3.8,1.0*32
$PGRME,7.9,M,7.5,M,10.9,M*1A
$PGRMV,0.0,0.0,-0.0*71
$PGRMM,WGS 84*06
$GPGGA,221810,4124.7482,N,08152.2443,W,2,05,3.4,273.4,M,-34.0,M,,*74
$GPGSA,A,3,02,06,,,,,,26,,29,,35,4.5,3.4,1.4*3C
$PGRME,8.8,M,7.7,M,11.7,M*19
$PGRMV,0.0,0.0,0.0*5C
$PGRMM,WGS 84*06
$GPGGA,221815,4124.7482,N,08152.2444,W,2,05,3.5,273.1,M,-34.0,M,,*72
$GPGSA,A,3,02,06,,,,,,26,,29,,35,4.3,3.5,1.0*3F
$PGRME,7.9,M,7.5,M,10.9,M*1A
$PGRMV,0.0,0.0,0.0*5C
$PGRMM,WGS 84*06
$GPGGA,221820,4124.7482,N,08152.2445,W,2,05,3.5,269.3,M,-34.0,M,,*7C
$GPGSA,A,3,02,06,,,,,,26,,29,,35,4.3,3.5,1.0*3F
$PGRME,8.6,M,8.3,M,12.5,M*1D
$PGRMV,0.0,0.0,0.0*5C
$PGRMM,WGS 84*06
$GPGGA,221825,4124.7482,N,08152.2445,W,2,05,3.5,269.3,M,-34.0,M,,*79
$GPGSA,A,3,02,06,,,,,,26,,29,,35,4.3,3.5,1.0*3F
$PGRME,11.2,M,8.6,M,14.5,M*22
$PGRMV,0.0,0.0,0.0*5C
$PGRMM,WGS 84*06
$GPGGA,221830,4124.7485,N,08152.2446,W,2,05,4.0,265.2,M,-34.0,M,,*76
$GPGSA,A,3,02,06,,,,,,26,,29,,35,4.2,4.0,1.0*3C
$PGRME,9.2,M,7.7,M,12.1,M*17
$PGRMV,0.0,0.0,-0.0*71
$PGRMM,WGS 84*06
$GPGGA,221835,4124.7488,N,08152.2446,W,2,05,4.0,263.6,M,-34.0,M,,*7C
$GPGSA,A,3,02,06,,,,,,26,,29,,35,4.2,4.0,1.0*3C
$PGRME,10.3,M,7.9,M,13.1,M*21
$PGRMV,0.0,0.0,-0.0*71
$PGRMM,WGS 84*06
$GPGGA,221840,4124.7490,N,08152.2447,W,2,04,4.1,259.6,M,-34.0,M,,*7F
$GPGSA,A,3,02,06,,,,,,26,,,,35,4.2,4.1,1.0*36
$PGRME,11.7,M,8.3,M,14.5,M*22
$PGRMT,GPS 15-H Ver. 2.02,P,P,R,R,P,,33,R*06
$PGRMV,0.0,0.0,0.0*5C
$PGRMM,WGS 84*06
$GPGGA,221845,4124.7494,N,08152.2447,W,2,05,4.2,255.6,M,-34.0,M,,*70
$GPGSA,A,3,02,06,,,,,,26,,29,,35,4.4,4.2,1.2*3A
$PGRME,8.8,M,7.7,M,11.7,M*19
$PGRMV,0.0,0.0,0.0*5C
$PGRMM,WGS 84*06
$GPGGA,221850,4124.7497,N,08152.2448,W,2,05,4.2,251.5,M,-34.0,M,,*7F
$GPGSA,A,3,02,06,,,,,,26,,29,,35,4.4,4.2,1.2*3A
$PGRME,9.4,M,8.5,M,13.2,M*1E
$PGRMV,0.0,0.0,0.0*5C
$PGRMM,WGS 84*06
$GPGGA,221855,4124.7500,N,08152.2449,W,2,05,4.1,254.0,M,-34.0,M,,*77
$GPGSA,A,3,02,06,,,,,,26,,29,,35,4.2,4.1,1.0*3D
$PGRME,8.6,M,8.4,M,12.2,M*1D
$PGRMV,0.0,0.0,0.0*5C
$PGRMM,WGS 84*06
$GPGGA,221900,4124.7502,N,08152.2449,W,2,05,4.1,251.7,M,-34.0,M,,*76
$GPGSA,A,3,02,06,,,,,,26,,29,,35,4.2,4.1,1.0*3D
$PGRME,10.8,M,8.7,M,14.1,M*2C
$PGRMV,0.0,0.0,-0.0*71
$PGRMM,WGS 84*06
$GPGGA,221905,4124.7505,N,08152.2451,W,2,05,3.3,248.5,M,-34.0,M,,*72
$GPGSA,A,3,02,06,,,,,,26,,29,,35,4.2,3.3,1.2*3A
$PGRME,7.9,M,7.5,M,10.9,M*1A
$PGRMV,0.0,0.0,0.0*5C
$PGRMM,WGS 84*06
$GPGGA,221910,4124.7506,N,08152.2452,W,2,05,3.3,246.9,M,-34.0,M,,*74
$GPGSA,A,3,02,06,,,,,,26,,29,,35,4.4,3.3,1.8*36
$PGRME,7.9,M,7.5,M,10.9,M*1A
$PGRMV,0.0,0.0,0.0*5C
$PGRMM,WGS 84*06
$GPGGA,221915,4124.7508,N,08152.2453,W,2,05,3.4,243.4,M,-34.0,M,,*71
$GPGSA,A,3,02,06,,,,,,26,,29,,35,4.5,3.4,2.1*3A
$PGRME,8.8,M,7.8,M,11.8,M*19
$PGRMV,0.0,0.0,0.0*5C
$PGRMM,WGS 84*06
$GPGGA,221920,4124.7511,N,08152.2454,W,2,05,3.4,239.4,M,-34.0,M,,*75
$GPGSA,A,3,02,06,,,,,,26,,29,,35,4.5,3.4,2.1*3A
$PGRME,7.9,M,7.6,M,10.9,M*19
$PGRMV,0.0,0.0,-0.0*71
$PGRMM,WGS 84*06
$GPGGA,221925,4124.7513,N,08152.2456,W,2,05,3.7,236.5,M,-34.0,M,,*7D
$GPGSA,A,3,02,06,,,,,,26,,29,,35,4.3,3.7,1.2*3F
$PGRME,8.8,M,7.8,M,11.8,M*19
$PGRMV,0.0,0.0,-0.0*71
$PGRMM,WGS 84*06
$GPGGA,221930,4124.7515,N,08152.2457,W,2,05,3.6,237.1,M,-34.0,M,,*7A
$GPGSA,A,3,02,06,,,,,,26,,29,,35,4.5,3.6,1.2*38
$PGRME,8.8,M,7.8,M,11.8,M*19
$PGRMV,0.0,0.0,-0.0*71
$PGRMM,WGS 84*06
$GPGGA,221935,4124.7513,N,08152.2457,W,2,05,3.2,243.0,M,-34.0,M,,*7F
$GPGSA,A,3,02,06,,,,,,26,,29,,35,4.4,3.2,1.8*37
$PGRME,7.9,M,7.6,M,10.9,M*19
$PGRMV,0.0,0.0,0.0*5C
$PGRMM,WGS 84*06
$GPGGA,221940,4124.7352,N,08152.2428,W,2,05,3.5,247.5,M,-34.0,M,,*70
$GPGSA,A,3,02,06,,,,,,26,,29,,35,4.1,3.5,1.0*3D
$PGRME,9.2,M,7.9,M,12.1,M*19
$PGRMT,GPS 15-H Ver. 2.02,P,P,R,R,P,,33,R*06
$PGRMV,0.0,0.0,0.0*5C
$PGRMM,WGS 84*06
$GPGGA,221945,4124.7369,N,08152.2412,W,2,05,3.2,247.0,M,-34.0,M,,*76
$GPGSA,A,3,02,06,,,,,,26,,29,,35,4.4,3.2,1.8*37
$PGRME,7.9,M,7.6,M,10.9,M*19
$PGRMV,0.0,0.0,0.0*5C
$PGRMM,WGS 84*06
$GPGGA,221950,4124.7503,N,08152.2438,W,2,05,3.2,247.5,M,-34.0,M,,*75
$GPGSA,A,3,02,06,,,,,,26,,29,,35,4.1,3.2,1.2*38
$PGRME,7.9,M,7.6,M,10.9,M*19
$PGRMV,0.0,0.0,0.0*5C
$PGRMM,WGS 84*06
$GPGGA,221955,4124.7509,N,08152.2440,W,2,05,3.6,247.5,M,-34.0,M,,*71
$GPGSA,A,3,02,06,,,,,,26,,29,,35,4.2,3.6,1.2*3F
$PGRME,7.9,M,7.6,M,10.9,M*19
$PGRMV,0.0,0.0,0.0*5C
$PGRMM,WGS 84*06
$GPGGA,222000,4124.7511,N,08152.2440,W,2,05,3.2,246.3,M,-34.0,M,,*71
$GPGSA,A,3,02,06,,,,,,26,,29,,35,4.2,3.2,1.4*3D
$PGRME,7.9,M,7.6,M,10.9,M*19
$PGRMV,0.0,0.0,0.0*5C
$PGRMM,WGS 84*06
$GPGGA,222005,4124.7512,N,08152.2441,W,2,05,3.2,248.5,M,-34.0,M,,*7E
$GPGSA,A,3,02,06,,,,,,26,,29,,35,4.2,3.2,1.4*3D
$PGRME,7.9,M,7.6,M,10.9,M*19
$PGRMV,0.0,0.0,0.1*5D
$PGRMM,WGS 84*06
$GPGGA,222010,4124.7512,N,08152.2441,W,2,05,3.7,248.7,M,-34.0,M,,*7D
$GPGSA,A,3,02,06,,,,,,26,,29,,35,4.9,3.7,1.8*3F
$PGRME,8.7,M,7.9,M,11.8,M*17
$PGRMV,0.0,0.0,0.1*5D
$PGRMM,WGS 84*06
$GPGGA,222015,4124.7510,N,08152.2442,W,2,05,3.6,249.7,M,-34.0,M,,*79
$GPGSA,A,3,02,06,,,,,,26,,29,,35,4.6,3.6,1.0*39
$PGRME,7.8,M,7.6,M,10.9,M*18
$PGRMV,0.0,0.0,0.0*5C
$PGRMM,WGS 84*06
$GPGGA,222020,4124.7509,N,08152.2442,W,2,05,3.7,251.5,M,-34.0,M,,*7D
$GPGSA,A,3,02,06,,,,,,26,,29,,35,4.7,3.7,1.2*3B
$PGRME,8.7,M,7.9,M,11.8,M*17
$PGRMV,0.0,0.0,0.0*5C
$PGRMM,WGS 84*06
$GPGGA,222025,4124.7508,N,08152.2443,W,2,04,4.0,254.5,M,-34.0,M,,*7C
$GPGSA,A,3,02,06,,,,,,26,,,,35,4.8,4.0,1.2*3F
$PGRME,10.7,M,8.2,M,13.6,M*26
$PGRMV,0.0,0.0,0.0*5C
$PGRMM,WGS 84*06
$GPGGA,222030,4124.7506,N,08152.2443,W,2,05,4.0,256.4,M,-34.0,M,,*74
$GPGSA,A,3,02,06,,,,,,26,,29,,35,4.8,4.0,1.2*34
$PGRME,8.7,M,7.9,M,11.8,M*17
$PGRMV,0.0,0.0,0.0*5C
$PGRMM,WGS 84*06
$GPGGA,222035,4124.7503,N,08152.2443,W,2,05,3.4,257.3,M,-34.0,M,,*71
$GPGSA,A,3,02,06,,,,,,26,,29,,35,4.5,3.4,1.7*3F
$PGRME,7.8,M,7.7,M,11.0,M*11
$PGRMV,0.0,0.0,0.0*5C
$PGRMM,WGS 84*06
$GPGGA,222040,4124.7500,N,08152.2444,W,2,05,3.4,257.5,M,-34.0,M,,*71
$GPGSA,A,3,02,06,,,,,,26,,29,,35,4.5,3.4,1.9*31
$PGRME,8.7,M,7.9,M,11.8,M*17
$PGRMT,GPS 15-H Ver. 2.02,P,P,R,R,P,,33,R*06
$PGRMV,0.0,0.0,0.0*5C
$PGRMM,WGS 84*06
$GPGGA,222045,4124.7499,N,08152.2445,W,2,04,3.8,256.7,M,-34.0,M,,*7A
$GPGSA,A,3,02,06,,,,,,26,,,,35,4.7,3.8,1.0*3D
$PGRME,11.8,M,8.2,M,14.6,M*2F
$PGRMV,0.0,0.0,0.0*5C
$PGRMM,WGS 84*06
$GPGGA,222050,4124.7498,N,08152.2447,W,2,04,3.8,253.6,M,-34.0,M,,*79
$GPGSA,A,3,02,06,,,,,,26,,,,35,4.7,3.8,1.0*3D
$PGRME,13.7,M,8.6,M,16.4,M*26
$PGRMV,0.0,0.0,0.0*5C
$PGRMM,WGS 84*06
$GPGGA,222055,4124.7499,N,08152.2448,W,2,05,3.8,255.3,M,-34.0,M,,*70
$GPGSA,A,3,02,06,,,,,,26,,29,,35,4.0,3.8,1.2*33
$PGRME,7.8,M,7.7,M,11.0,M*11
$PGRMV,0.0,0.0,0.0*5C
$PGRMM,WGS 84*06
$GPGGA,222100,4124.7491,N,08152.2461,W,2,05,4.1,254.9,M,-34.0,M,,*77
$GPGSA,A,3,02,06,,,,,,26,,29,,35,4.2,4.1,1.0*3D
$PGRME,10.4,M,7.4,M,13.1,M*2B
$PGRMV,0.0,0.0,0.0*5C
$PGRMM,WGS 84*06
$GPGGA,222105,4124.7334,N,08152.2636,W,2,04,3.7,254.3,M,-34.0,M,,*70
$GPGSA,A,2,02,,,,,,,26,,29,,35,3.8,3.7,1.0*36
$PGRME,11.7,M,7.2,M,13.7,M*29
$PGRMV,0.0,0.0,0.0*5C
$PGRMM,WGS 84*06
$GPGGA,222110,4124.7349,N,08152.2607,W,2,04,3.9,254.2,M,-34.0,M,,*73
$GPGSA,A,2,02,,,,,,,26,,29,,35,4.0,3.9,1.0*37
$PGRME,13.6,M,7.2,M,15.5,M*2E
$PGRMV,0.0,0.0,0.0*5C
$PGRMM,WGS 84*06
$GPGGA,222115,4124.7368,N,08152.2578,W,2,03,4.0,254.2,M,-34.0,M,,*77
$GPGSA,A,2,02,,,,,,,26,,,,35,4.2,4.0,1.0*30
$PGRME,13.6,M,7.2,M,15.5,M*2E
$PGRMV,0.0,0.0,0.0*5C
$PGRMM,WGS 84*06
$GPGGA,222120,4124.7383,N,08152.2555,W,2,04,3.5,254.2,M,-34.0,M,,*7E
$GPGSA,A,2,02,,,,,,,26,,29,,35,3.7,3.5,1.0*3B
$PGRME,11.7,M,7.2,M,13.8,M*26
$PGRMV,0.0,0.0,0.0*5C
$PGRMM,WGS 84*06
$GPGGA,222125,4124.7392,N,08152.2538,W,2,04,3.6,254.2,M,-34.0,M,,*73
$GPGSA,A,2,02,,,,,,,26,,29,,35,3.8,3.6,1.0*37
$PGRME,11.7,M,7.2,M,13.8,M*26
$PGRMV,0.0,0.0,0.0*5C
$PGRMM,WGS 84*06
$GPGGA,222130,4124.7400,N,08152.2526,W,2,04,4.0,254.1,M,-34.0,M,,*76
$GPGSA,A,2,02,,,,,,,26,,29,,35,4.2,4.0,1.0*3B
$PGRME,12.7,M,7.2,M,14.7,M*2D
$PGRMV,0.0,0.0,0.0*5C
$PGRMM,WGS 84*06
$GPGGA,222135,4124.7405,N,08152.2516,W,2,05,4.3,256.4,M,-34.0,M,,*70
$GPGSA,A,3,02,06,,,,,,26,,29,,35,4.4,4.3,1.0*39
$PGRME,14.3,M,7.9,M,16.4,M*25
$PGRMV,0.0,0.0,0.0*5C
$PGRMM,WGS 84*06
$GPGGA,222140,4124.7413,N,08152.2506,W,2,05,4.5,257.6,M,-34.0,M,,*71
$GPGSA,A,3,02,06,,,,,,26,,29,,35,4.7,4.5,1.2*3E
$PGRME,7.8,M,7.8,M,11.0,M*1E
$PGRMT,GPS 15-H Ver. 2.02,P,P,R,R,P,,33,R*06
$PGRMV,0.0,0.0,-0.0*71
$PGRMM,WGS 84*06
$GPGGA,222145,4124.7419,N,08152.2495,W,2,05,3.2,260.2,M,-34.0,M,,*75
$GPGSA,A,3,02,06,,,,,,26,,29,,35,4.1,3.2,1.4*3E
$PGRME,7.8,M,7.8,M,11.0,M*1E
$PGRMV,0.0,0.0,-0.0*71
$PGRMM,WGS 84*06
$GPGGA,222150,4124.7423,N,08152.2483,W,2,05,3.5,261.8,M,-34.0,M,,*73
$GPGSA,A,3,02,06,,,,,,26,,29,,35,3.7,3.5,1.0*3C
$PGRME,8.3,M,7.6,M,11.4,M*10
$PGRMV,0.0,0.0,-0.0*71
$PGRMM,WGS 84*06
$GPGGA,222155,4124.7425,N,08152.2474,W,2,05,3.8,262.8,M,-34.0,M,,*76
$GPGSA,A,3,02,06,,,,,,26,,29,,35,4.0,3.8,1.2*33
$PGRME,7.8,M,7.8,M,11.0,M*1E
$PGRMV,0.0,0.0,0.0*5C
$PGRMM,WGS 84*06
$GPGGA,222200,4124.7427,N,08152.2465,W,2,05,3.2,266.1,M,-34.0,M,,*70
$GPGSA,A,3,02,06,,,,,,26,,29,,35,4.1,3.2,1.4*3E
$PGRME,7.8,M,7.8,M,11.0,M*1E
$PGRMV,0.0,0.0,0.0*5C
$PGRMM,WGS 84*06
$GPGGA,222205,4124.7425,N,08152.2457,W,2,05,3.9,266.4,M,-34.0,M,,*78
$GPGSA,A,3,02,06,,,,,,26,,29,,35,4.4,3.9,1.0*34
$PGRME,8.3,M,7.7,M,11.4,M*11
$PGRMV,0.0,0.0,-0.0*71
$PGRMM,WGS 84*06
$GPGGA,222210,4124.7426,N,08152.2450,W,2,05,4.2,263.3,M,-34.0,M,,*76
$GPGSA,A,3,02,06,,,,,,26,,29,,35,5.0,4.2,1.0*3D
$PGRME,9.4,M,8.4,M,12.8,M*14
$PGRMV,0.0,0.0,-0.0*71
$PGRMM,WGS 84*06
$GPGGA,222215,4124.7426,N,08152.2444,W,2,05,3.8,264.1,M,-34.0,M,,*7E
$GPGSA,A,3,02,06,,,,,,26,,29,,35,3.9,3.8,1.0*3F
$PGRME,7.8,M,7.8,M,11.1,M*1F
$PGRMV,0.0,0.0,-0.0*71
$PGRMM,WGS 84*06
$GPGGA,222220,4124.7426,N,08152.2439,W,2,05,3.8,266.8,M,-34.0,M,,*79
$GPGSA,A,3,02,06,,,,,,26,,29,,35,3.9,3.8,1.0*3F
$PGRME,8.3,M,8.3,M,11.9,M*17
$PGRMV,0.0,0.0,0.0*5C
$PGRMM,WGS 84*06
$GPGGA,222225,4124.7425,N,08152.2434,W,2,05,3.7,264.3,M,-34.0,M,,*74
$GPGSA,A,3,02,06,,,,,,26,,29,,35,3.8,3.7,1.0*31
$PGRME,9.4,M,8.5,M,12.9,M*14
$PGRMV,0.0,0.0,0.0*5C
$PGRMM,WGS 84*06
$GPGGA,222230,4124.7426,N,08152.2430,W,2,04,3.7,265.2,M,-34.0,M,,*76
$GPGSA,A,3,02,06,,,,,,26,,,,35,3.8,3.7,1.0*3A
$PGRME,10.4,M,8.8,M,13.8,M*21
$PGRMV,0.0,0.0,0.0*5C
$PGRMM,WGS 84*06
$GPGGA,222235,4124.7425,N,08152.2427,W,2,04,3.7,265.2,M,-34.0,M,,*76
$GPGSA,A,3,02,06,,,,,,26,,,,35,3.8,3.7,1.0*3A
$PGRME,10.6,M,8.8,M,13.9,M*22
$PGRMV,0.0,0.0,0.0*5C
$PGRMM,WGS 84*06
$GPGGA,222240,4124.7426,N,08152.2424,W,2,03,3.7,265.2,M,-34.0,M,,*73
$GPGSA,A,3,,06,,,,,,26,,,,35,3.8,3.7,1.0*38
$PGRME,10.9,M,8.8,M,14.1,M*22
$PGRMT,GPS 15-H Ver. 2.02,P,P,R,R,P,,33,R*06
$PGRMV,0.0,0.0,0.0*5C
$PGRMM,WGS 84*06
$GPGGA,222245,4124.7423,N,08152.2421,W,2,04,3.8,379.9,M,-34.0,M,,*79
$GPGSA,A,3,,06,,,,,,26,,29,,35,4.3,3.8,1.7*37
$PGRME,8.2,M,9.6,M,14.5,M*1B
$PGRMV,0.0,0.0,-0.0*71
$PGRMM,WGS 84*06
$GPGGA,222250,4124.7098,N,08152.2383,W,2,04,3.6,379.8,M,-34.0,M,,*79
$GPGSA,A,3,,06,,,,,,26,,29,,35,3.8,3.6,1.0*32
$PGRME,8.7,M,9.6,M,14.6,M*1D
$PGRMV,0.0,0.0,-0.0*71
$PGRMM,WGS 84*06
$GPGGA,222255,4124.6960,N,08152.2399,W,2,03,3.6,379.8,M,-34.0,M,,*7F
$GPGSA,A,2,,06,,,,,,26,,,,35,3.8,3.6,1.0*38
$PGRME,8.7,M,9.6,M,14.6,M*1D
$PGRMV,0.0,0.0,-0.0*71
$PGRMM,WGS 84*06
$GPGGA,222300,4124.6942,N,08152.2404,W,2,03,3.6,379.8,M,-34.0,M,,*7D
$GPGSA,A,2,,06,,,,,,26,,,,35,3.8,3.6,1.0*38
$PGRME,9.1,M,9.6,M,14.8,M*14
$PGRMV,0.0,0.0,-0.0*71
$PGRMM,WGS 84*06
$GPGGA,222305,4124.6937,N,08152.2406,W,2,04,3.6,308.4,M,-34.0,M,,*75
$GPGSA,A,3,02,06,,,,,,26,,,,35,3.8,3.6,1.0*3B
$PGRME,10.1,M,9.8,M,15.3,M*28
$PGRMV,0.0,0.0,-0.0*71
$PGRMM,WGS 84*06
$GPGGA,222310,4124.6940,N,08152.2406,W,2,05,3.6,364.4,M,-34.0,M,,*7A
$GPGSA,A,3,02,06,,,,,,26,,29,,35,3.7,3.6,1.0*3F
$PGRME,8.0,M,7.8,M,11.2,M*1B
$PGRMV,0.0,0.0,0.0*5C
$PGRMM,WGS 84*06
$GPGGA,222315,4124.6988,N,08152.2404,W,2,05,3.6,318.6,M,-34.0,M,,*70
$GPGSA,A,3,02,06,,,,,,26,,29,,35,3.7,3.6,1.0*3F
$PGRME,9.9,M,8.4,M,13.0,M*10
$PGRMV,0.1,-0.3,0.1*72
$PGRMM,WGS 84*06
$GPGGA,222320,4124.7023,N,08152.2413,W,2,04,3.6,295.7,M,-34.0,M,,*7D
$GPGSA,A,3,02,06,,,,,,26,,,,35,3.7,3.6,1.0*34
$PGRME,11.2,M,8.9,M,14.4,M*2C
$PGRMV,0.0,0.0,0.0*5C
$PGRMM,WGS 84*06
$GPGGA,222325,4124.7043,N,08152.2421,W,2,04,3.6,295.7,M,-34.0,M,,*7F
$GPGSA,A,3,02,06,,,,,,26,,,,35,3.7,3.6,1.0*34
$PGRME,11.9,M,9.2,M,15.1,M*29
$PGRMV,0.0,0.0,-0.0*71
$PGRMM,WGS 84*06
$GPGGA,222330,4124.7059,N,08152.2426,W,2,04,3.6,295.9,M,-34.0,M,,*79
$GPGSA,A,3,02,06,,,,,,26,,,,35,3.7,3.6,1.0*34
$PGRME,12.3,M,9.4,M,15.5,M*22
$PGRMV,0.0,0.0,0.0*5C
$PGRMM,WGS 84*06
$GPGGA,222335,4124.7079,N,08152.2430,W,2,05,3.6,291.8,M,-34.0,M,,*7D
$GPGSA,A,3,02,06,,,,,,26,,29,,35,3.7,3.6,1.0*3F
$PGRME,8.5,M,8.1,M,11.8,M*12
$PGRMV,0.0,0.0,0.0*5C
$PGRMM,WGS 84*06
$GPGGA,222340,4124.7096,N,08152.2432,W,2,05,3.6,292.6,M,-34.0,M,,*71
$GPGSA,A,3,02,06,,,,,,26,,29,,35,3.7,3.6,1.0*3F
$PGRME,7.6,M,7.8,M,10.9,M*18
$PGRMT,GPS 15-H Ver. 2.02,P,P,R,R,P,,33,R*06
$PGRMV,0.0,0.0,0.0*5C
$PGRMM,WGS 84*06
$GPGGA,222345,4124.7112,N,08152.2434,W,2,05,3.6,290.3,M,-34.0,M,,*78
$GPGSA,A,3,02,06,,,,,,26,,29,,35,3.7,3.6,1.0*3F
$PGRME,9.1,M,8.2,M,12.3,M*1C
$PGRMV,0.0,0.0,0.0*5C
$PGRMM,WGS 84*06
$GPGGA,222350,4124.7240,N,08152.2459,W,2,04,3.8,215.9,M,-34.0,M,,*7B
$GPGSA,A,3,02,06,,,,,,26,,,,35,4.0,3.8,1.4*3E
$PGRME,10.5,M,8.8,M,13.7,M*2F
$PGRMV,0.0,0.0,-0.0*71
$PGRMM,WGS 84*06
$GPGGA,222355,4124.7263,N,08152.2465,W,2,04,3.7,225.3,M,-34.0,M,,*76
$GPGSA,A,3,02,06,,,,,,26,,,,35,3.9,3.7,1.2*39
$PGRME,10.5,M,8.8,M,13.7,M*2F
$PGRMV,0.0,0.0,-0.0*71
$PGRMM,WGS 84*06
$GPGGA,222400,4124.7281,N,08152.2467,W,2,04,3.6,231.9,M,-34.0,M,,*71
$GPGSA,A,3,02,06,,,,,,26,,,,35,3.9,3.6,1.2*38
$PGRME,11.2,M,9.0,M,14.4,M*24
$PGRMV,0.0,0.0,0.0*5C
$PGRMM,WGS 84*06
$GPGGA,222405,4124.7298,N,08152.2470,W,2,05,3.5,240.1,M,-34.0,M,,*76
$GPGSA,A,3,02,06,,,,,,26,,29,,35,3.7,3.5,1.0*3C
$PGRME,8.2,M,9.8,M,14.8,M*18
$PGRMV,0.0,0.0,0.1*5D
$PGRMM,WGS 84*06
$GPGGA,222410,4124.7307,N,08152.2470,W,2,05,3.3,243.3,M,-34.0,M,,*72
$GPGSA,A,3,02,06,,,,,,26,,29,,35,3.7,3.3,1.0*3A
$PGRME,8.1,M,7.7,M,11.3,M*14
$PGRMV,0.0,0.0,0.1*5D
$PGRMM,WGS 84*06
$GPGGA,222415,4124.7315,N,08152.2473,W,2,05,3.6,241.4,M,-34.0,M,,*77
$GPGSA,A,3,02,06,,,,,,26,,29,,35,4.0,3.6,1.2*3D
$PGRME,8.9,M,8.0,M,12.1,M*15
$PGRMV,0.0,0.0,0.1*5D
$PGRMM,WGS 84*06
$GPGGA,222420,4124.7325,N,08152.2477,W,2,04,3.5,241.1,M,-34.0,M,,*71
$GPGSA,A,3,02,06,,,,,,26,,,,35,3.6,3.5,1.0*36
$PGRME,10.0,M,8.4,M,13.2,M*23
$PGRMV,0.0,0.0,0.1*5D
$PGRMM,WGS 84*06
$GPGGA,222425,4124.7335,N,08152.2482,W,2,04,3.5,241.0,M,-34.0,M,,*7E
$GPGSA,A,3,02,06,,,,,,26,,,,35,3.6,3.5,1.0*36
$PGRME,10.8,M,8.7,M,13.9,M*23
$PGRMV,0.0,0.0,0.0*5C
$PGRMM,WGS 84*06
$GPGGA,222430,4124.7343,N,08152.2486,W,2,05,3.7,242.4,M,-34.0,M,,*7B
$GPGSA,A,3,02,06,,,,,,26,,29,,35,3.9,3.7,1.0*30
$PGRME,9.2,M,8.1,M,12.4,M*1B
$PGRMV,0.0,0.0,0.0*5C
$PGRMM,WGS 84*06
$GPGGA,222435,4124.7350,N,08152.2491,W,2,05,3.3,240.7,M,-34.0,M,,*7F
$GPGSA,A,3,02,06,,,,,,26,,29,,35,4.2,3.3,1.7*3F
$PGRME,7.6,M,7.9,M,10.9,M*19
$PGRMV,0.0,0.0,0.0*5C
$PGRMM,WGS 84*06
$GPGGA,222440,4124.7357,N,08152.2496,W,2,05,3.3,240.3,M,-34.0,M,,*79
$GPGSA,A,3,02,06,,,,,,26,,29,,35,4.7,3.3,2.4*3A
$PGRME,7.7,M,8.4,M,11.4,M*16
$PGRMT,GPS 15-H Ver. 2.02,P,P,R,R,P,,34,R*01
$PGRMV,0.0,0.0,-0.0*71
$PGRMM,WGS 84*06
$GPGGA,222445,4124.7362,N,08152.2500,W,2,05,3.3,242.5,M,-34.0,M,,*70
$GPGSA,A,3,02,06,,,,,,26,,29,,35,4.4,3.3,1.4*3A
$PGRME,7.6,M,7.9,M,11.0,M*11
$PGRMV,0.0,0.0,-0.0*71
$PGRMM,WGS 84*06
$GPGGA,222450,4124.7367,N,08152.2503,W,2,05,3.3,243.0,M,-34.0,M,,*76
$GPGSA,A,3,02,06,,,,,,26,,29,,35,4.1,3.3,1.7*3C
$PGRME,7.7,M,8.4,M,11.4,M*16
$PGRMV,0.0,0.0,-0.0*71
$PGRMM,WGS 84*06
$GPGGA,222455,4124.7372,N,08152.2506,W,2,05,3.5,238.7,M,-34.0,M,,*7F
$GPGSA,A,3,02,06,,,,,,26,,29,,35,3.6,3.5,1.0*3D
$PGRME,8.1,M,8.9,M,12.1,M*14
$PGRMV,0.0,0.0,0.0*5C
$PGRMM,WGS 84*06
$GPGGA,222500,4124.7377,N,08152.2510,W,2,04,3.5,240.3,M,-34.0,M,,*76
$GPGSA,A,3,,06,,,,,,26,,29,,35,3.6,3.5,1.0*3F
$PGRME,8.5,M,9.3,M,12.7,M*1D
$PGRMV,0.0,0.0,0.0*5C
$PGRMM,WGS 84*06
$GPGGA,222505,4124.7382,N,08152.2513,W,2,04,3.8,241.9,M,-34.0,M,,*7C
$GPGSA,A,3,,06,,,,,,26,,29,,35,4.4,3.8,1.7*30
$PGRME,8.1,M,10.0,M,13.7,M*23
$PGRMV,0.0,0.0,0.0*5C
$PGRMM,WGS 84*06
$GPGGA,222510,4124.7387,N,08152.2516,W,2,05,3.4,238.8,M,-34.0,M,,*7A
$GPGSA,A,3,02,06,,,,,,26,,29,,35,3.6,3.4,1.0*3C
$PGRME,8.0,M,7.9,M,11.3,M*1B
$PGRMV,0.0,0.0,0.0*5C
$PGRMM,WGS 84*06
$GPGGA,222515,4124.7391,N,08152.2519,W,2,05,3.5,235.9,M,-34.0,M,,*7A
$GPGSA,A,3,02,06,,,,,,26,,29,,35,3.8,3.5,1.2*31
$PGRME,9.7,M,8.6,M,13.1,M*1D
$PGRMV,0.0,0.0,0.0*5C
$PGRMM,WGS 84*06
$GPGGA,222520,4124.7396,N,08152.2522,W,2,04,3.4,234.7,M,-34.0,M,,*7C
$GPGSA,A,3,02,06,,,,,,26,,,,35,3.6,3.4,1.0*37
$PGRME,11.6,M,8.9,M,14.7,M*2B
$PGRMV,0.0,0.0,0.0*5C
$PGRMM,WGS 84*06
$GPGGA,222525,4124.7489,N,08152.2573,W,2,05,3.1,232.9,M,-34.0,M,,*78
$GPGSA,A,3,02,06,,,,,,26,,29,,35,3.6,3.1,1.0*39
$PGRME,8.5,M,8.3,M,11.9,M*11
$PGRMV,0.0,0.0,-0.0*71
$PGRMM,WGS 84*06
$GPGGA,222530,4124.7492,N,08152.2575,W,2,05,3.9,231.7,M,-34.0,M,,*75
$GPGSA,A,3,02,06,,,,,,26,,29,,35,4.6,3.9,1.0*36
$PGRME,10.7,M,8.8,M,14.8,M*25
$PGRMV,0.0,0.0,0.0*5C
$PGRMM,WGS 84*06
$GPGGA,222535,4124.7493,N,08152.2582,W,2,05,4.4,231.9,M,-34.0,M,,*7D
$GPGSA,A,3,02,06,,,,,,26,,29,,35,4.9,4.4,1.0*33
$PGRME,12.4,M,8.8,M,16.1,M*2F
$PGRMV,0.0,0.0,0.0*5C
$PGRMM,WGS 84*06
$GPGGA,222540,4124.7494,N,08152.2586,W,2,04,4.6,230.6,M,-34.0,M,,*71
$GPGSA,A,3,02,06,,,,,,26,,,,35,5.0,4.6,1.0*32
$PGRME,14.8,M,9.1,M,18.2,M*20
$PGRMT,GPS 15-H Ver. 2.02,P,P,R,R,P,,34,R*01
$PGRMV,0.0,0.0,0.0*5C
$PGRMM,WGS 84*06
$GPGGA,222545,4124.7500,N,08152.2586,W,2,05,3.8,230.2,M,-34.0,M,,*74
$GPGSA,A,3,02,06,,,,,,26,,29,,35,3.9,3.8,1.0*3F
$PGRME,13.4,M,8.9,M,16.1,M*2F
$PGRMV,0.0,0.0,0.0*5C
$PGRMM,WGS 84*06
$GPGGA,222550,4124.7505,N,08152.2586,W,2,05,4.4,229.2,M,-34.0,M,,*76
$GPGSA,A,3,02,06,,,,,,26,,29,,35,4.6,4.4,1.0*3C
$PGRME,15.7,M,9.2,M,18.3,M*2C
$PGRMV,0.0,0.0,0.0*5C
$PGRMM,WGS 84*06
$GPGGA,222555,4124.7508,N,08152.2587,W,2,05,3.8,230.5,M,-34.0,M,,*7B
$GPGSA,A,3,02,06,,,,,,26,,29,,35,3.9,3.8,1.0*3F
$PGRME,10.3,M,8.2,M,13.4,M*20
$PGRMV,0.0,0.0,0.0*5C
$PGRMM,WGS 84*06
$GPGGA,222600,4124.7511,N,08152.2586,W,2,05,4.1,230.4,M,-34.0,M,,*7E
$GPGSA,A,3,02,06,,,,,,26,,29,,35,4.2,4.1,1.0*3D
$PGRME,11.6,M,8.2,M,14.6,M*21
$PGRMV,0.0,0.0,0.0*5C
$PGRMM,WGS 84*06
$GPGGA,222605,4124.7514,N,08152.2585,W,2,03,4.3,230.4,M,-34.0,M,,*79
$GPGSA,A,3,02,,,,,,,26,,,,35,4.4,4.3,1.0*34
$PGRME,13.9,M,8.2,M,16.6,M*2E
$PGRMV,0.0,0.0,0.0*5C
$PGRMM,WGS 84*06
$GPGGA,222610,4124.7517,N,08152.2583,W,2,03,4.4,230.4,M,-34.0,M,,*7F
$GPGSA,A,2,02,,,,,,,26,,,,35,4.6,4.4,1.0*30
$PGRME,13.9,M,8.2,M,16.6,M*2E
$PGRMV,0.0,0.0,0.0*5C
$PGRMM,WGS 84*06
$GPGGA,222615,4124.7520,N,08152.2583,W,2,03,4.7,230.4,M,-34.0,M,,*7D
$GPGSA,A,2,02,,,,,,,26,,,,35,4.8,4.7,1.0*3D
$PGRME,15.8,M,8.2,M,18.2,M*23
$PGRMV,0.0,0.0,0.0*5C
$PGRMM,WGS 84*06
$GPGGA,222620,4124.7523,N,08152.2583,W,2,04,4.9,231.1,M,-34.0,M,,*75
$GPGSA,A,3,02,06,,,,,,26,,,,35,5.0,4.9,1.0*3D
$PGRME,16.0,M,8.6,M,19.6,M*29
$PGRMV,0.0,0.0,0.0*5C
$PGRMM,WGS 84*06
$GPGGA,222625,4124.7527,N,08152.2580,W,2,04,4.6,231.6,M,-34.0,M,,*7F
$GPGSA,A,3,02,06,,,,,,26,,,,35,5.1,4.6,1.0*33
$PGRME,16.8,M,8.9,M,20.2,M*20
$PGRMV,0.0,0.0,0.0*5C
$PGRMM,WGS 84*06
$GPGGA,222630,4124.7528,N,08152.2578,W,2,05,3.3,236.2,M,-34.0,M,,*73
$GPGSA,A,3,02,06,,,,,,26,,29,,35,3.5,3.3,1.0*38
$PGRME,9.2,M,9.9,M,15.7,M*16
$PGRMV,0.0,0.0,0.0*5C
$PGRMM,WGS 84*06
$GPGGA,222635,4124.7530,N,08152.2574,W,2,05,3.7,238.8,M,-34.0,M,,*73
$GPGSA,A,3,02,06,,,,,,26,,29,,35,4.0,3.7,1.2*3C
$PGRME,11.3,M,10.1,M,17.1,M*1A
$PGRMV,0.0,0.0,0.0*5C
$PGRMM,WGS 84*06
$GPGGA,222640,4124.7532,N,08152.2571,W,2,04,3.7,241.9,M,-34.0,M,,*78
$GPGSA,A,3,02,06,,,,,,26,,,,35,4.0,3.7,1.2*37
$PGRME,11.3,M,10.1,M,17.1,M*1A
$PGRMT,GPS 15-H Ver. 2.02,P,P,R,R,P,,34,R*01
$PGRMV,0.0,0.0,0.0*5C
$PGRMM,WGS 84*06
$GPGGA,222645,4124.7532,N,08152.2567,W,2,04,3.4,243.2,M,-34.0,M,,*70
$GPGSA,A,3,02,06,,,,,,26,,,,35,3.7,3.4,1.2*34
$PGRME,11.8,M,10.3,M,16.1,M*12
$PGRMV,0.0,0.0,0.0*5C
$PGRMM,WGS 84*06
$GPGGA,222650,4124.7532,N,08152.2563,W,2,04,3.8,243.4,M,-34.0,M,,*7A
$GPGSA,A,3,02,06,,,,,,,26,,,35,4.0,3.8,1.0*3A
$PGRME,13.2,M,10.3,M,17.2,M*18
$PGRMV,0.0,0.0,0.0*5C
$PGRMM,WGS 84*06
$GPGGA,222655,4124.7533,N,08152.2560,W,2,04,3.6,241.5,M,-34.0,M,,*70
$GPGSA,A,3,02,06,,,,,,,26,,,35,3.9,3.6,1.2*38
$PGRME,14.0,M,10.6,M,17.7,M*1D
$PGRMV,0.0,0.0,0.0*5C
$PGRMM,WGS 84*06
$GPGGA,222700,4124.7533,N,08152.2557,W,2,04,3.3,239.6,M,-34.0,M,,*7C
$GPGSA,A,3,02,06,,,,,,,26,,,35,3.4,3.3,1.0*32
$PGRME,12.4,M,10.8,M,16.4,M*13
$PGRMV,0.0,0.0,0.0*5C
$PGRMM,WGS 84*06
$GPGGA,222705,4124.7533,N,08152.2555,W,2,04,3.4,241.4,M,-34.0,M,,*71
$GPGSA,A,3,02,06,,,,,,,26,,,35,3.6,3.4,1.2*35
$PGRME,12.7,M,10.9,M,16.8,M*1D
$PGRMV,0.0,0.0,0.0*5C
$PGRMM,WGS 84*06
$GPGGA,222710,4124.7532,N,08152.2553,W,2,05,3.3,244.0,M,-34.0,M,,*75
$GPGSA,A,3,02,06,,,,,,,26,29,,35,3.4,3.3,1.0*39
$PGRME,7.6,M,8.1,M,11.1,M*17
$PGRMV,0.0,0.0,0.0*5C
$PGRMM,WGS 84*06
$GPGGA,222715,4124.7529,N,08152.2551,W,2,05,3.4,246.6,M,-34.0,M,,*7B
$GPGSA,A,3,02,06,,,,,,,26,29,,35,3.6,3.4,1.2*3E
$PGRME,8.4,M,8.5,M,12.0,M*1C
$PGRMV,0.0,0.0,0.0*5C
$PGRMM,WGS 84*06
$GPGGA,222720,4124.7528,N,08152.2550,W,2,05,3.5,247.5,M,-34.0,M,,*7E
$GPGSA,A,3,02,06,,,,,,,26,29,,35,3.8,3.5,1.4*37
$PGRME,9.2,M,8.9,M,12.8,M*1F
$PGRMV,0.0,0.0,0.0*5C
$PGRMM,WGS 84*06
$GPGGA,222725,4124.7525,N,08152.2549,W,2,05,3.3,246.9,M,-34.0,M,,*75
$GPGSA,A,3,02,06,,,,,,,26,29,,35,3.4,3.3,1.0*39
$PGRME,8.4,M,8.9,M,12.4,M*14
$PGRMV,0.0,0.0,0.0*5C
$PGRMM,WGS 84*06
$GPGGA,222730,4124.7524,N,08152.2548,W,2,05,3.3,244.6,M,-34.0,M,,*7C
$GPGSA,A,3,02,06,,,,,,,26,29,,35,3.4,3.3,1.0*39
$PGRME,9.5,M,9.3,M,13.3,M*19
$PGRMV,0.0,0.0,-0.0*71
$PGRMM,WGS 84*06
$GPGGA,222735,4124.7522,N,08152.2547,W,2,05,3.4,245.1,M,-34.0,M,,*71
$GPGSA,A,3,02,06,,,,,,,26,29,,35,3.6,3.4,1.2*3E
$PGRME,8.6,M,8.7,M,12.2,M*1E
$PGRMV,0.0,0.0,0.0*5C
$PGRMM,WGS 84*06
$GPGGA,222740,4124.7522,N,08152.2546,W,2,05,3.3,244.4,M,-34.0,M,,*71
$GPGSA,A,3,02,06,,,,,,,26,29,,35,3.4,3.3,1.0*39
$PGRME,7.7,M,8.3,M,11.3,M*16
$PGRMT,GPS 15-H Ver. 2.02,P,P,R,R,P,,34,R*01
$PGRMV,0.0,0.0,0.0*5C
$PGRMM,WGS 84*06
$GPGGA,222745,4124.7521,N,08152.2546,W,2,05,3.2,247.1,M,-34.0,M,,*70
$GPGSA,A,3,02,06,,,,,,,26,29,,35,3.4,3.2,1.0*38
$PGRME,7.8,M,8.8,M,11.7,M*16
$PGRMV,0.0,0.0,0.0*5C
$PGRMM,WGS 84*06
$GPGGA,222750,4124.7399,N,08152.2513,W,2,05,4.0,276.6,M,-34.0,M,,*71
$GPGSA,A,3,02,06,,,,,,,26,29,,35,4.5,4.0,1.0*3B
$PGRME,7.7,M,8.3,M,11.3,M*16
$PGRMV,0.0,0.0,0.0*5C
$PGRMM,WGS 84*06
$GPGGA,222755,4124.7396,N,08152.2514,W,2,05,3.2,219.2,M,-34.0,M,,*74
$GPGSA,A,3,02,06,,,,,,,26,29,,35,3.4,3.2,1.0*38
$PGRME,8.6,M,9.2,M,12.6,M*1E
$PGRMV,0.0,0.0,-0.0*71
$PGRMM,WGS 84*06
$GPGGA,222800,4124.7434,N,08152.2522,W,2,05,3.4,236.4,M,-34.0,M,,*7C
$GPGSA,A,3,02,06,,,,,,,26,29,,35,3.9,3.4,1.7*34
$PGRME,7.7,M,8.3,M,11.3,M*16
$PGRMV,0.0,0.0,-0.0*71
$PGRMM,WGS 84*06
$GPGGA,222805,4124.7532,N,08152.2549,W,2,05,3.3,231.9,M,-34.0,M,,*7E
$GPGSA,A,3,02,06,,,,,,,26,29,,35,3.6,3.3,1.2*39
$PGRME,8.5,M,8.7,M,12.2,M*1D
$PGRMV,0.0,0.0,-0.0*71
$PGRMM,WGS 84*06
$GPGGA,222810,4124.7537,N,08152.2558,W,2,05,3.2,232.8,M,-34.0,M,,*7C
$GPGSA,A,3,02,06,,,,,,,26,29,,35,3.4,3.2,1.0*38
$PGRME,8.5,M,9.2,M,12.9,M*12
$PGRMV,0.0,0.0,-0.0*71
$PGRMM,WGS 84*06
$GPGGA,222815,4124.7538,N,08152.2564,W,2,05,3.3,236.1,M,-34.0,M,,*75
$GPGSA,A,3,02,06,,,,,,,26,29,,35,3.9,3.3,1.7*33
$PGRME,7.7,M,8.3,M,11.3,M*16
$PGRMV,0.0,0.0,-0.0*71
$PGRMM,WGS 84*06
$GPGGA,222820,4124.7537,N,08152.2568,W,2,05,3.2,237.9,M,-34.0,M,,*78
$GPGSA,A,3,02,06,,,,,,,26,29,,35,3.4,3.2,1.0*38
$PGRME,8.1,M,9.2,M,12.3,M*1C
$PGRMV,0.0,0.0,-0.0*71
$PGRMM,WGS 84*06
$GPGGA,222825,4124.7535,N,08152.2571,W,2,05,3.2,236.6,M,-34.0,M,,*79
$GPGSA,A,3,02,06,,,,,,,26,29,,35,3.4,3.2,1.0*38
$PGRME,8.2,M,9.9,M,13.4,M*12
$PGRMV,0.0,0.0,0.0*5C
$PGRMM,WGS 84*06
$GPGGA,222830,4124.7535,N,08152.2573,W,2,05,3.0,234.8,M,-34.0,M,,*71
$GPGSA,A,3,02,06,,,,,,,26,29,,35,3.7,3.0,1.5*3C
$PGRME,7.7,M,8.4,M,11.4,M*16
$PGRMV,0.0,0.0,0.0*5C
$PGRMM,WGS 84*06
$GPGGA,222835,4124.7537,N,08152.2575,W,2,05,3.3,234.0,M,-34.0,M,,*7B
$GPGSA,A,3,02,06,,,,,,,26,29,,35,4.0,3.3,1.8*32
$PGRME,8.5,M,8.8,M,12.3,M*13
$PGRMV,0.0,0.0,0.0*5C
$PGRMM,WGS 84*06
$GPGGA,222840,4124.7539,N,08152.2576,W,2,05,3.3,233.4,M,-34.0,M,,*77
$GPGSA,A,3,02,06,,,,,,,26,29,,35,3.6,3.3,1.2*39
$PGRME,9.5,M,9.2,M,13.2,M*19
$PGRMT,GPS 15-H Ver. 2.02,P,P,R,R,P,,35,R*00
$PGRMV,0.0,0.0,0.0*5C
$PGRMM,WGS 84*06
$GPGGA,222845,4124.7540,N,08152.2576,W,2,05,3.3,235.0,M,-34.0,M,,*7E
$GPGSA,A,3,02,06,,,,,,,26,29,,35,3.9,3.3,1.7*33
$PGRME,7.7,M,8.4,M,11.4,M*16
$PGRMV,0.0,0.0,0.0*5C
$PGRMM,WGS 84*06
$GPGGA,222850,4124.7541,N,08152.2575,W,2,05,3.2,237.8,M,-34.0,M,,*73
$GPGSA,A,3,02,06,,,,,,,26,29,,35,3.8,3.2,1.4*30
$PGRME,8.5,M,8.8,M,12.3,M*13
$PGRMV,0.0,0.0,0.0*5C
$PGRMM,WGS 84*06
$GPGGA,222855,4124.7540,N,08152.2575,W,2,05,3.2,237.0,M,-34.0,M,,*7F
$GPGSA,A,3,02,06,,,,,,,26,29,,35,3.3,3.2,1.0*3F
$PGRME,11.0,M,9.0,M,14.2,M*20
$PGRMV,0.0,0.0,0.0*5C
$PGRMM,WGS 84*06
$GPGGA,222900,4124.7540,N,08152.2574,W,2,05,3.3,233.7,M,-34.0,M,,*7D
$GPGSA,A,3,02,06,,,,,,,26,29,,35,3.5,3.3,1.2*3A
$PGRME,11.7,M,9.7,M,15.2,M*21
$PGRMV,0.0,0.0,0.0*5C
$PGRMM,WGS 84*06
$GPGGA,222905,4124.7541,N,08152.2575,W,2,05,3.3,240.1,M,-34.0,M,,*7A
$GPGSA,A,3,02,06,,,,,,,26,29,,35,3.5,3.3,1.2*3A
$PGRME,7.7,M,8.4,M,11.4,M*16
$PGRMV,0.0,0.0,0.0*5C
$PGRMM,WGS 84*06
$GPGGA,222910,4124.7538,N,08152.2574,W,2,05,3.3,239.6,M,-34.0,M,,*78
$GPGSA,A,3,02,06,,,,,,,26,29,,35,3.5,3.3,1.2*3A
$PGRME,9.5,M,9.3,M,13.3,M*19
$PGRMV,0.0,0.0,0.0*5C
$PGRMM,WGS 84*06
$GPGGA,222915,4124.7537,N,08152.2573,W,2,04,3.4,238.8,M,-34.0,M,,*7C
$GPGSA,A,3,02,06,,,,,,,26,,,35,3.7,3.4,1.4*32
$PGRME,10.1,M,9.6,M,14.0,M*24
$PGRMV,0.0,0.0,0.0*5C
$PGRMM,WGS 84*06
$GPGGA,222920,4124.7536,N,08152.2572,W,2,05,3.4,239.6,M,-34.0,M,,*74
$GPGSA,A,3,02,06,,,,,,,26,29,,35,3.6,3.4,1.0*3C
$PGRME,8.5,M,8.9,M,12.3,M*12
$PGRMV,0.0,0.0,0.0*5C
$PGRMM,WGS 84*06
$GPGGA,222925,4124.7535,N,08152.2570,W,2,05,3.3,241.9,M,-34.0,M,,*77
$GPGSA,A,3,02,06,,,,,,,26,29,,35,3.5,3.3,1.2*3A
$PGRME,7.7,M,8.4,M,11.4,M*16
$PGRMV,0.0,0.0,0.0*5C
$PGRMM,WGS 84*06
$GPGGA,222930,4124.7435,N,08152.2503,W,2,05,3.1,247.1,M,-34.0,M,,*7A
$GPGSA,A,3,02,06,,,,,,,26,29,,35,3.3,3.1,1.0*3C
$PGRME,8.5,M,8.9,M,12.3,M*12
$PGRMV,0.0,0.0,0.1*5D
$PGRMM,WGS 84*06
$GPGGA,222935,4124.7427,N,08152.2489,W,2,05,3.1,248.5,M,-34.0,M,,*74
$GPGSA,A,3,02,06,,,,,,,26,29,,35,3.3,3.1,1.0*3C
$PGRME,8.4,M,9.3,M,12.8,M*13
$PGRMV,0.0,0.0,0.1*5D
$PGRMM,WGS 84*06
$GPGGA,222940,4124.7434,N,08152.2495,W,2,05,3.1,248.8,M,-34.0,M,,*74
$GPGSA,A,3,02,06,,,,,,,26,29,,35,3.3,3.1,1.0*3C
$PGRME,9.4,M,9.7,M,13.7,M*18
$PGRMT,GPS 15-H Ver. 2.02,P,P,R,R,P,,35,R*00
$PGRMV,0.0,0.0,0.0*5C
$PGRMM,WGS 84*06
$GPGGA,222945,4124.7443,N,08152.2505,W,2,05,3.1,245.8,M,-34.0,M,,*74
$GPGSA,A,3,02,06,,,,,,,26,29,,35,3.3,3.1,1.0*3C
$PGRME,7.7,M,8.5,M,11.4,M*17
$PGRMV,0.0,0.0,-0.0*71
$PGRMM,WGS 84*06
$GPGGA,222950,4124.7448,N,08152.2511,W,2,05,3.2,249.2,M,-34.0,M,,*7B
$GPGSA,A,3,02,06,,,,,,,26,29,,35,4.1,3.2,2.0*39
$PGRME,7.7,M,8.9,M,11.8,M*17
$PGRMV,0.0,0.0,0.0*5C
$PGRMM,WGS 84*06
$GPGGA,222955,4124.7451,N,08152.2515,W,2,05,3.5,243.8,M,-34.0,M,,*75
$GPGSA,A,3,02,06,,,,,,,26,29,,35,3.8,3.5,1.2*31
$PGRME,9.2,M,8.9,M,12.9,M*1E
$PGRMV,0.0,0.0,-0.0*71
$PGRMM,WGS 84*06
$GPGGA,223000,4124.7455,N,08152.2519,W,2,05,3.0,244.4,M,-34.0,M,,*7B
$GPGSA,A,3,02,06,,,,,,,26,29,,35,3.4,3.0,1.2*38
$PGRME,7.7,M,8.5,M,11.5,M*16
$PGRMV,0.0,0.0,-0.0*71
$PGRMM,WGS 84*06
$GPGGA,223005,4124.7454,N,08152.2523,W,2,05,4.2,249.0,M,-34.0,M,,*7A
$GPGSA,A,3,02,06,,,,,,,26,29,,35,4.8,4.2,1.0*34
$PGRME,8.3,M,8.3,M,11.9,M*17
$PGRMV,0.0,0.0,-0.0*71
$PGRMM,WGS 84*06
$GPGGA,223010,4124.7451,N,08152.2525,W,2,05,3.4,250.8,M,-34.0,M,,*7C
$GPGSA,A,3,02,06,,,,,,,26,29,,35,3.6,3.4,1.0*3C
$PGRME,8.4,M,8.5,M,12.1,M*1D
$PGRMV,0.0,0.0,0.0*5C
$PGRMM,WGS 84*06
$GPGGA,223015,4124.7449,N,08152.2528,W,2,05,3.4,254.3,M,-34.0,M,,*72
$GPGSA,A,3,02,06,,,,,,,26,29,,35,3.7,3.4,1.0*3D
$PGRME,8.5,M,9.0,M,12.4,M*1D
$PGRMV,0.0,0.0,-0.0*71
$PGRMM,WGS 84*06
$GPGGA,223020,4124.7445,N,08152.2528,W,2,05,3.1,256.8,M,-34.0,M,,*74
$GPGSA,A,3,02,06,,,,,,,26,29,,35,3.2,3.1,1.0*3D
$PGRME,8.9,M,9.0,M,12.7,M*12
$PGRMV,0.0,0.0,0.0*5C
$PGRMM,WGS 84*06
$GPGGA,223025,4124.7443,N,08152.2529,W,2,04,3.3,258.0,M,-34.0,M,,*73
$GPGSA,A,3,02,06,,,,,,,26,,,35,3.4,3.3,1.0*32
$PGRME,11.2,M,9.4,M,14.9,M*2D
$PGRMV,0.0,0.0,-0.0*71
$PGRMM,WGS 84*06
$GPGGA,223030,4124.7439,N,08152.2529,W,2,05,3.0,260.5,M,-34.0,M,,*76
$GPGSA,A,3,02,06,,,,,,,26,29,,35,3.7,3.0,1.5*3C
$PGRME,7.7,M,8.6,M,11.5,M*15
$PGRMV,0.0,0.0,0.0*5C
$PGRMM,WGS 84*06
$GPGGA,223035,4124.7436,N,08152.2522,W,2,05,3.4,259.2,M,-34.0,M,,*7E
$GPGSA,A,3,02,06,,,,,,,26,29,,35,4.1,3.4,1.0*3C
$PGRME,7.7,M,8.6,M,11.5,M*15
$PGRMV,0.0,0.0,0.0*5C
$PGRMM,WGS 84*06
$GPGGA,223040,4124.7569,N,08152.2469,W,2,05,3.2,252.8,M,-34.0,M,,*7E
$GPGSA,A,3,02,06,,,,,,,26,29,,35,3.4,3.2,1.2*3A
$PGRME,8.5,M,9.1,M,12.4,M*1C
$PGRMT,GPS 15-H Ver. 2.02,P,P,R,R,P,,35,R*00
$PGRMV,0.0,0.0,0.0*5C
$PGRMM,WGS 84*06
$GPGGA,223045,4124.7659,N,08152.2501,W,2,05,3.5,250.1,M,-34.0,M,,*78
$GPGSA,A,3,02,06,,,,,,,26,29,,35,3.8,3.5,1.2*31
$PGRME,7.7,M,8.6,M,11.5,M*15
$PGRMV,0.0,0.0,0.0*5C
$PGRMM,WGS 84*06
$GPGGA,223050,4124.7656,N,08152.2499,W,2,05,3.2,246.4,M,-34.0,M,,*76
$GPGSA,A,3,02,06,,,,,,,26,29,,35,4.3,3.2,1.0*38
$PGRME,8.5,M,9.1,M,12.5,M*1D
$PGRMV,0.0,0.0,0.0*5C
$PGRMM,WGS 84*06
$GPGGA,223055,4124.7644,N,08152.2502,W,2,05,3.0,250.6,M,-34.0,M,,*74
$GPGSA,A,3,02,06,,,,,,,26,29,,35,3.3,3.0,1.2*3F
$PGRME,7.7,M,8.6,M,11.5,M*15
$PGRMV,0.0,0.0,0.0*5C
$PGRMM,WGS 84*06
$GPGGA,223100,4124.7489,N,08152.2517,W,2,05,3.3,250.6,M,-34.0,M,,*71
$GPGSA,A,3,02,06,,,,,,,26,29,,35,3.8,3.3,1.6*33
$PGRME,7.7,M,8.6,M,11.6,M*16
$PGRMV,0.0,0.0,0.0*5C
$PGRMM,WGS 84*06
$GPGGA,223105,4124.7417,N,08152.2508,W,2,05,3.7,250.2,M,-34.0,M,,*7D
$GPGSA,A,3,02,06,,,,,,,26,29,,35,4.4,3.7,1.8*32
$PGRME,7.7,M,8.9,M,11.9,M*16
$PGRMV,0.0,0.0,0.0*5C
$PGRMM,WGS 84*06
$GPGGA,223110,4124.7447,N,08152.2489,W,2,05,3.0,246.6,M,-34.0,M,,*70
$GPGSA,A,3,02,06,,,,,,,26,29,,35,3.5,3.0,1.4*3F
$PGRME,7.7,M,8.7,M,11.6,M*17
$PGRMV,0.0,0.0,0.0*5C
$PGRMM,WGS 84*06
$GPGGA,223115,4124.7463,N,08152.2480,W,2,05,3.1,242.1,M,-34.0,M,,*78
$GPGSA,A,3,02,06,,,,,,,26,29,,35,3.6,3.1,1.5*3C
$PGRME,7.7,M,8.7,M,11.6,M*17
$PGRMV,0.0,0.0,0.0*5C
$PGRMM,WGS 84*06
$GPGGA,223120,4124.7476,N,08152.2476,W,2,05,3.0,239.9,M,-34.0,M,,*76
$GPGSA,A,3,02,06,,,,,,,26,29,,35,3.2,3.0,1.0*3C
$PGRME,7.9,M,8.7,M,11.8,M*17
$PGRMV,0.0,0.0,-0.0*71
$PGRMM,WGS 84*06
$GPGGA,223125,4124.7484,N,08152.2475,W,2,05,3.0,244.2,M,-34.0,M,,*7C
$GPGSA,A,3,02,06,,,,,,,26,29,,35,3.2,3.0,1.0*3C
$PGRME,7.9,M,8.7,M,11.8,M*17
$PGRMV,0.0,0.0,-0.0*71
$PGRMM,WGS 84*06
$GPGGA,223133,4124.7520,N,08152.2467,W,0,00,,,M,,M,,*47
$GPGSA,A,1,,,,,,,,,,,,,,,*1E
$PGRME,,M,,M,,M*00
$PGRMV,,,*72
$PGRMM,WGS 84*06
$GPGGA,223138,4124.7520,N,08152.2467,W,0,00,,,M,,M,,*4C
$GPGSA,A,1,,,,,,,,,,,,,,,*1E
$PGRME,,M,,M,,M*00
